행정동코드,시도명,시군구명,읍면동명,주소,lat,lng
1111051500,서울특별시,종로구,청운효자동,서울특별시 종로구 청운효자동,37.584137,126.970652
1111053000,서울특별시,종로구,사직동,서울특별시 종로구 사직동,37.575393,126.965925
1111054000,서울특별시,종로구,삼청동,서울특별시 종로구 삼청동,37.585013,126.981836
1111055000,서울특별시,종로구,부암동,서울특별시 종로구 부암동,37.592479,126.9641
1111056000,서울특별시,종로구,평창동,서울특별시 종로구 평창동,37.606317,126.968187
1111057000,서울특별시,종로구,무악동,서울특별시 종로구 무악동,37.576003,126.958148
1111058000,서울특별시,종로구,교남동,서울특별시 종로구 교남동,37.568527,126.964438
1111060000,서울특별시,종로구,가회동,서울특별시 종로구 가회동,37.580078,126.9848
1111061500,서울특별시,종로구,종로1.2.3.4가동,서울특별시 종로구 종로1.2.3.4가동,37.574461,126.990262
1111063000,서울특별시,종로구,종로5.6가동,서울특별시 종로구 종로5.6가동,37.572015,127.005041
1111064000,서울특별시,종로구,이화동,서울특별시 종로구 이화동,37.577008,127.004338
1111065000,서울특별시,종로구,혜화동,서울특별시 종로구 혜화동,37.586919,127.000576
1111067000,서울특별시,종로구,창신제1동,서울특별시 종로구 창신제1동,37.570758,127.016363
1111068000,서울특별시,종로구,창신제2동,서울특별시 종로구 창신제2동,37.574458,127.010863
1111069000,서울특별시,종로구,창신제3동,서울특별시 종로구 창신제3동,37.5779055,127.0150474
1111070000,서울특별시,종로구,숭인제1동,서울특별시 종로구 숭인제1동,37.577805,127.015627
1111071000,서울특별시,종로구,숭인제2동,서울특별시 종로구 숭인제2동,37.574867,127.019988
1114052000,서울특별시,중구,소공동,서울특별시 중구 소공동,37.56405,126.980053
1114054000,서울특별시,중구,회현동,서울특별시 중구 회현동,37.557286,126.979322
1114055000,서울특별시,중구,명동,서울특별시 중구 명동,37.558251,126.985229
1114057000,서울특별시,중구,필동,서울특별시 중구 필동,37.560153,126.99557
1114058000,서울특별시,중구,장충동,서울특별시 중구 장충동,37.561895,127.007881
1114059000,서울특별시,중구,광희동,서울특별시 중구 광희동,37.564494,127.005062
1114060500,서울특별시,중구,을지로동,서울특별시 중구 을지로동,37.566972,126.991205
1114061500,서울특별시,중구,신당동,서울특별시 중구 신당동,37.562097,127.014548
1114062500,서울특별시,중구,다산동,서울특별시 중구 다산동,37.554286,127.008232
1114063500,서울특별시,중구,약수동,서울특별시 중구 약수동,37.552479,127.009002
1114064500,서울특별시,중구,청구동,서울특별시 중구 청구동,37.557083,127.014687
1114065000,서울특별시,중구,신당제5동,서울특별시 중구 신당제5동,37.565142,127.02185
1114066500,서울특별시,중구,동화동,서울특별시 중구 동화동,37.560043,127.019456
1114067000,서울특별시,중구,황학동,서울특별시 중구 황학동,37.567345,127.021281
1114068000,서울특별시,중구,중림동,서울특별시 중구 중림동,37.558898,126.966731
1117051000,서울특별시,용산구,후암동,서울특별시 용산구 후암동,37.548638,126.978134
1117052000,서울특별시,용산구,용산2가동,서울특별시 용산구 용산2가동,37.546133,126.985578
1117053000,서울특별시,용산구,남영동,서울특별시 용산구 남영동,37.542843,126.973331
1117055500,서울특별시,용산구,청파동,서울특별시 용산구 청파동,37.5488,126.9674
1117056000,서울특별시,용산구,원효로제1동,서울특별시 용산구 원효로제1동,37.537219,126.967681
1117057000,서울특별시,용산구,원효로제2동,서울특별시 용산구 원효로제2동,37.53435,126.951538
1117058000,서울특별시,용산구,효창동,서울특별시 용산구 효창동,37.542457,126.96185
1117059000,서울특별시,용산구,용문동,서울특별시 용산구 용문동,37.537641,126.95966
1117062500,서울특별시,용산구,한강로동,서울특별시 용산구 한강로동,37.528107,126.969233
1117063000,서울특별시,용산구,이촌제1동,서울특별시 용산구 이촌제1동,37.521417,126.9732
1117064000,서울특별시,용산구,이촌제2동,서울특별시 용산구 이촌제2동,37.526258,126.954707
1117065000,서울특별시,용산구,이태원제1동,서울특별시 용산구 이태원제1동,37.532523,126.995038
1117066000,서울특별시,용산구,이태원제2동,서울특별시 용산구 이태원제2동,37.541896,126.990148
1117068500,서울특별시,용산구,한남동,서울특별시 용산구 한남동,37.53455,127.0005
1117069000,서울특별시,용산구,서빙고동,서울특별시 용산구 서빙고동,37.520458,126.994663
1117070000,서울특별시,용산구,보광동,서울특별시 용산구 보광동,37.526326,127.000182
1120052000,서울특별시,성동구,왕십리제2동,서울특별시 성동구 왕십리제2동,37.561799,127.031021
1120053500,서울특별시,성동구,왕십리도선동,서울특별시 성동구 왕십리도선동,37.567826,127.02555
1120054000,서울특별시,성동구,마장동,서울특별시 성동구 마장동,37.566325,127.045388
1120055000,서울특별시,성동구,사근동,서울특별시 성동구 사근동,37.561485,127.045331
1120056000,서울특별시,성동구,행당제1동,서울특별시 성동구 행당제1동,37.558567,127.036188
1120057000,서울특별시,성동구,행당제2동,서울특별시 성동구 행당제2동,37.558208,127.02935
1120058000,서울특별시,성동구,응봉동,서울특별시 성동구 응봉동,37.553164,127.033436
1120059000,서울특별시,성동구,금호1가동,서울특별시 성동구 금호1가동,37.554901,127.021635
1120061500,서울특별시,성동구,금호2.3가동,서울특별시 성동구 금호2.3가동,37.553292,127.020949
1120062000,서울특별시,성동구,금호4가동,서울특별시 성동구 금호4가동,37.547199,127.02241
1120064500,서울특별시,성동구,옥수동,서울특별시 성동구 옥수동,37.543639,127.013462
1120065000,서울특별시,성동구,성수1가제1동,서울특별시 성동구 성수1가제1동,37.542108,127.04965
1120066000,서울특별시,성동구,성수1가제2동,서울특별시 성동구 성수1가제2동,37.546477,127.044303
1120067000,서울특별시,성동구,성수2가제1동,서울특별시 성동구 성수2가제1동,37.539591,127.054066
1120069000,서울특별시,성동구,성수2가제3동,서울특별시 성동구 성수2가제3동,37.548222,127.055265
1120072000,서울특별시,성동구,송정동,서울특별시 성동구 송정동,37.554522,127.0696
1120079000,서울특별시,성동구,용답동,서울특별시 성동구 용답동,37.564062,127.055551
1121571000,서울특별시,광진구,화양동,서울특별시 광진구 화양동,37.546542,127.071315
1121573000,서울특별시,광진구,군자동,서울특별시 광진구 군자동,37.555485,127.075349
1121574000,서울특별시,광진구,중곡제1동,서울특별시 광진구 중곡제1동,37.560675,127.080038
1121575000,서울특별시,광진구,중곡제2동,서울특별시 광진구 중곡제2동,37.560308,127.081487
1121576000,서울특별시,광진구,중곡제3동,서울특별시 광진구 중곡제3동,37.564046,127.086589
1121577000,서울특별시,광진구,중곡제4동,서울특별시 광진구 중곡제4동,37.559087,127.089454
1121578000,서울특별시,광진구,능동,서울특별시 광진구 능동,37.55378,127.080499
1121581000,서울특별시,광진구,광장동,서울특별시 광진구 광장동,37.546892,127.103025
1121582000,서울특별시,광진구,자양제1동,서울특별시 광진구 자양제1동,37.534508,127.082438
1121583000,서울특별시,광진구,자양제2동,서울특별시 광진구 자양제2동,37.528825,127.084438
1121584000,서울특별시,광진구,자양제3동,서울특별시 광진구 자양제3동,37.533842,127.072913
1121584700,서울특별시,광진구,자양제4동,서울특별시 광진구 자양제4동,37.534112,127.066297
1121585000,서울특별시,광진구,구의제1동,서울특별시 광진구 구의제1동,37.542492,127.085676
1121586000,서울특별시,광진구,구의제2동,서울특별시 광진구 구의제2동,37.547248,127.089911
1121587000,서울특별시,광진구,구의제3동,서울특별시 광진구 구의제3동,37.538071,127.09202
1123053600,서울특별시,동대문구,용신동,서울특별시 동대문구 용신동,37.575818,127.037217
1123054500,서울특별시,동대문구,제기동,서울특별시 동대문구 제기동,37.583161,127.037855
1123056000,서울특별시,동대문구,전농제1동,서울특별시 동대문구 전농제1동,37.577998,127.047757
1123057000,서울특별시,동대문구,전농제2동,서울특별시 동대문구 전농제2동,37.578103,127.060037
1123060000,서울특별시,동대문구,답십리제1동,서울특별시 동대문구 답십리제1동,37.571796,127.051268
1123061000,서울특별시,동대문구,답십리제2동,서울특별시 동대문구 답십리제2동,37.567417,127.06125
1123065000,서울특별시,동대문구,장안제1동,서울특별시 동대문구 장안제1동,37.567842,127.066375
1123066000,서울특별시,동대문구,장안제2동,서울특별시 동대문구 장안제2동,37.578483,127.0706
1123070500,서울특별시,동대문구,청량리동,서울특별시 동대문구 청량리동,37.583177,127.048435
1123071000,서울특별시,동대문구,회기동,서울특별시 동대문구 회기동,37.590808,127.055313
1123072000,서울특별시,동대문구,휘경제1동,서울특별시 동대문구 휘경제1동,37.592932,127.065725
1123073000,서울특별시,동대문구,휘경제2동,서울특별시 동대문구 휘경제2동,37.590209,127.068579
1123074000,서울특별시,동대문구,이문제1동,서울특별시 동대문구 이문제1동,37.597849,127.06545
1123075000,서울특별시,동대문구,이문제2동,서울특별시 동대문구 이문제2동,37.603357,127.065075
1126052000,서울특별시,중랑구,면목제2동,서울특별시 중랑구 면목제2동,37.589799,127.07905
1126054000,서울특별시,중랑구,면목제4동,서울특별시 중랑구 면목제4동,37.574674,127.085578
1126055000,서울특별시,중랑구,면목제5동,서울특별시 중랑구 면목제5동,37.585784,127.079511
1126056500,서울특별시,중랑구,면목본동,서울특별시 중랑구 면목본동,37.587359,127.087423
1126057000,서울특별시,중랑구,면목제7동,서울특별시 중랑구 면목제7동,37.577723,127.086093
1126057500,서울특별시,중랑구,면목제3.8동,서울특별시 중랑구 면목3.8동,37.582968,127.08806
1126058000,서울특별시,중랑구,상봉제1동,서울특별시 중랑구 상봉제1동,37.59988,127.0872
1126059000,서울특별시,중랑구,상봉제2동,서울특별시 중랑구 상봉제2동,37.592892,127.080852
1126060000,서울특별시,중랑구,중화제1동,서울특별시 중랑구 중화제1동,37.601175,127.080623
1126061000,서울특별시,중랑구,중화제2동,서울특별시 중랑구 중화제2동,37.599384,127.079543
1126062000,서울특별시,중랑구,묵제1동,서울특별시 중랑구 묵제1동,37.612373,127.078473
1126063000,서울특별시,중랑구,묵제2동,서울특별시 중랑구 묵제2동,37.609572,127.075988
1126065500,서울특별시,중랑구,망우본동,서울특별시 중랑구 망우본동,37.600573,127.101468
1126066000,서울특별시,중랑구,망우제3동,서울특별시 중랑구 망우제3동,37.591911,127.09495
1126068000,서울특별시,중랑구,신내1동,서울특별시 중랑구 신내1동,37.605882,127.099538
1126069000,서울특별시,중랑구,신내2동,서울특별시 중랑구 신내2동,37.60619,127.094231
1129052500,서울특별시,성북구,성북동,서울특별시 성북구 성북동,37.591124,127.003288
1129055500,서울특별시,성북구,삼선동,서울특별시 성북구 삼선동,37.590833,127.01463
1129057500,서울특별시,성북구,동선동,서울특별시 성북구 동선동,37.593982,127.020367
1129058000,서울특별시,성북구,돈암제1동,서울특별시 성북구 돈암제1동,37.6026,127.027761
1129059000,서울특별시,성북구,돈암제2동,서울특별시 성북구 돈암제2동,37.598039,127.010566
1129060000,서울특별시,성북구,안암동,서울특별시 성북구 안암동,37.58585,127.021329
1129061000,서울특별시,성북구,보문동,서울특별시 성북구 보문동,37.580383,127.0228
1129062000,서울특별시,성북구,정릉제1동,서울특별시 성북구 정릉제1동,37.601451,127.016615
1129063000,서울특별시,성북구,정릉제2동,서울특별시 성북구 정릉제2동,37.604473,127.011105
1129064000,서울특별시,성북구,정릉제3동,서울특별시 성북구 정릉제3동,37.608958,127.004186
1129065000,서울특별시,성북구,정릉제4동,서울특별시 성북구 정릉제4동,37.613339,127.00698
1129066000,서울특별시,성북구,길음제1동,서울특별시 성북구 길음제1동,37.610486,127.019392
1129068500,서울특별시,성북구,길음제2동,서울특별시 성북구 길음제2동,37.606684,127.027344
1129070500,서울특별시,성북구,종암동,서울특별시 성북구 종암동,37.599008,127.035157
1129071500,서울특별시,성북구,월곡제1동,서울특별시 성북구 월곡제1동,37.610547,127.035757
1129072500,서울특별시,성북구,월곡제2동,서울특별시 성북구 월곡제2동,37.605767,127.047876
1129076000,서울특별시,성북구,장위제1동,서울특별시 성북구 장위제1동,37.614125,127.043713
1129077000,서울특별시,성북구,장위제2동,서울특별시 성북구 장위제2동,37.61239,127.054521
1129078000,서울특별시,성북구,장위제3동,서울특별시 성북구 장위제3동,37.616551,127.056603
1129081000,서울특별시,성북구,석관동,서울특별시 성북구 석관동,37.612957,127.061413
1130553400,서울특별시,강북구,삼양동,서울특별시 강북구 삼양동,37.625052,127.019773
1130553500,서울특별시,강북구,미아동,서울특별시 강북구 미아동,37.627074,127.026979
1130554500,서울특별시,강북구,송중동,서울특별시 강북구 송중동,37.616099,127.033738
1130555500,서울특별시,강북구,송천동,서울특별시 강북구 송천동,37.618282,127.023838
1130557500,서울특별시,강북구,삼각산동,서울특별시 강북구 삼각산동,37.615157,127.020721
1130559500,서울특별시,강북구,번1동,서울특별시 강북구 번1동,37.637891,127.028847
1130560300,서울특별시,강북구,번2동,서울특별시 강북구 번2동,37.632359,127.038795
1130560800,서울특별시,강북구,번3동,서울특별시 강북구 번3동,37.625874,127.04665
1130561500,서울특별시,강북구,수유1동,서울특별시 강북구 수유1동,37.630087,127.017601
1130562500,서울특별시,강북구,수유2동,서울특별시 강북구 수유2동,37.644703,127.019878
1130563500,서울특별시,강북구,수유3동,서울특별시 강북구 수유3동,37.638715,127.023125
1130564500,서울특별시,강북구,우이동,서울특별시 강북구 우이동,37.6633,127.002
1130566000,서울특별시,강북구,인수동,서울특별시 강북구 인수동,37.641511,127.010631
1132051100,서울특별시,도봉구,창제1동,서울특별시 도봉구 창제1동,37.648305,127.043868
1132051200,서울특별시,도봉구,창제2동,서울특별시 도봉구 창제2동,37.641403,127.035639
1132051300,서울특별시,도봉구,창제3동,서울특별시 도봉구 창제3동,37.638128,127.042956
1132051400,서울특별시,도봉구,창제4동,서울특별시 도봉구 창제4동,37.652228,127.051599
1132051500,서울특별시,도봉구,창제5동,서울특별시 도봉구 창제5동,37.656344,127.043679
1132052100,서울특별시,도봉구,도봉제1동,서울특별시 도봉구 도봉제1동,37.678691,127.043437
1132052200,서울특별시,도봉구,도봉제2동,서울특별시 도봉구 도봉제2동,37.669751,127.046575
1132066000,서울특별시,도봉구,쌍문제1동,서울특별시 도봉구 쌍문제1동,37.648028,127.026114
1132067000,서울특별시,도봉구,쌍문제2동,서울특별시 도봉구 쌍문제2동,37.659939,127.039811
1132068000,서울특별시,도봉구,쌍문제3동,서울특별시 도봉구 쌍문제3동,37.648978,127.027864
1132068100,서울특별시,도봉구,쌍문제4동,서울특별시 도봉구 쌍문제4동,37.656482,127.028425
1132069000,서울특별시,도봉구,방학제1동,서울특별시 도봉구 방학제1동,37.664176,127.040725
1132070000,서울특별시,도봉구,방학제2동,서울특별시 도봉구 방학제2동,37.668184,127.0351
1132071000,서울특별시,도봉구,방학제3동,서울특별시 도봉구 방학제3동,37.659169,127.028036
1135056000,서울특별시,노원구,월계1동,서울특별시 노원구 월계1동,37.61992,127.063016
1135057000,서울특별시,노원구,월계2동,서울특별시 노원구 월계2동,37.632538,127.0508
1135058000,서울특별시,노원구,월계3동,서울특별시 노원구 월계3동,37.621048,127.069249
1135059500,서울특별시,노원구,공릉1동,서울특별시 노원구 공릉1동,37.624874,127.073838
1135060000,서울특별시,노원구,공릉2동,서울특별시 노원구 공릉2동,37.621332,127.083488
1135061100,서울특별시,노원구,하계1동,서울특별시 노원구 하계1동,37.640537,127.072585
1135061200,서울특별시,노원구,하계2동,서울특별시 노원구 하계2동,37.632005,127.067973
1135061900,서울특별시,노원구,중계본동,서울특별시 노원구 중계본동,37.64784,127.080338
1135062100,서울특별시,노원구,중계1동,서울특별시 노원구 중계1동,37.652599,127.077528
1135062400,서울특별시,노원구,중계4동,서울특별시 노원구 중계4동,37.658728,127.078009
1135062500,서울특별시,노원구,중계2.3동,서울특별시 노원구 중계2.3동,37.642183,127.068713
1135063000,서울특별시,노원구,상계1동,서울특별시 노원구 상계1동,37.679901,127.054978
1135064000,서울특별시,노원구,상계2동,서울특별시 노원구 상계2동,37.657473,127.067838
1135066500,서울특별시,노원구,상계3.4동,서울특별시 노원구 상계3.4동,37.672913,127.083266
1135067000,서울특별시,노원구,상계5동,서울특별시 노원구 상계5동,37.662924,127.069347
1135069500,서울특별시,노원구,상계6.7동,서울특별시 노원구 상계6.7동,37.654882,127.066954
1135070000,서울특별시,노원구,상계8동,서울특별시 노원구 상계8동,37.666785,127.051587
1135071000,서울특별시,노원구,상계9동,서울특별시 노원구 상계9동,37.664553,127.063835
1135072000,서울특별시,노원구,상계10동,서울특별시 노원구 상계10동,37.661274,127.060225
1138051000,서울특별시,은평구,녹번동,서울특별시 은평구 녹번동,37.602194,126.929825
1138052000,서울특별시,은평구,불광제1동,서울특별시 은평구 불광제1동,37.610388,126.932075
1138053000,서울특별시,은평구,불광제2동,서울특별시 은평구 불광제2동,37.624387,126.928491
1138055100,서울특별시,은평구,갈현제1동,서울특별시 은평구 갈현제1동,37.623707,126.916675
1138055200,서울특별시,은평구,갈현제2동,서울특별시 은평구 갈현제2동,37.618587,126.915839
1138056000,서울특별시,은평구,구산동,서울특별시 은평구 구산동,37.611746,126.910389
1138057000,서울특별시,은평구,대조동,서울특별시 은평구 대조동,37.614165,126.920813
1138058000,서울특별시,은평구,응암제1동,서울특별시 은평구 응암제1동,37.600688,126.926813
1138059000,서울특별시,은평구,응암제2동,서울특별시 은평구 응암제2동,37.594607,126.923093
1138060000,서울특별시,은평구,응암제3동,서울특별시 은평구 응암제3동,37.592247,126.915727
1138062500,서울특별시,은평구,역촌동,서울특별시 은평구 역촌동,37.604405,126.915114
1138063100,서울특별시,은평구,신사제1동,서울특별시 은평구 신사제1동,37.597845,126.911774
1138063200,서울특별시,은평구,신사제2동,서울특별시 은평구 신사제2동,37.59028,126.908419
1138064000,서울특별시,은평구,증산동,서울특별시 은평구 증산동,37.584306,126.90704
1138065000,서울특별시,은평구,수색동,서울특별시 은평구 수색동,37.583519,126.893666
1138069000,서울특별시,은평구,진관동,서울특별시 은평구 진관동,37.634983,126.921051
1141052000,서울특별시,서대문구,천연동,서울특별시 서대문구 천연동,37.567888,126.959404
1141055500,서울특별시,서대문구,북아현동,서울특별시 서대문구 북아현동,37.5595,126.957025
1141056500,서울특별시,서대문구,충현동,서울특별시 서대문구 충현동,37.564827,126.954686
1141058500,서울특별시,서대문구,신촌동,서울특별시 서대문구 신촌동,37.564092,126.941811
1141061500,서울특별시,서대문구,연희동,서울특별시 서대문구 연희동,37.573908,126.935175
1141062000,서울특별시,서대문구,홍제제1동,서울특별시 서대문구 홍제제1동,37.587699,126.944878
1141064000,서울특별시,서대문구,홍제제3동,서울특별시 서대문구 홍제제3동,37.59383,126.949674
1141065500,서울특별시,서대문구,홍제제2동,서울특별시 서대문구 홍제제2동,37.586107,126.949338
1141066000,서울특별시,서대문구,홍은제1동,서울특별시 서대문구 홍은제1동,37.598906,126.947111
1141068500,서울특별시,서대문구,홍은제2동,서울특별시 서대문구 홍은제2동,37.580197,126.934251
1141069000,서울특별시,서대문구,남가좌제1동,서울특별시 서대문구 남가좌제1동,37.573295,126.919723
1141070000,서울특별시,서대문구,남가좌제2동,서울특별시 서대문구 남가좌제2동,37.578466,126.923889
1141071000,서울특별시,서대문구,북가좌제1동,서울특별시 서대문구 북가좌제1동,37.57429,126.910194
1141072000,서울특별시,서대문구,북가좌제2동,서울특별시 서대문구 북가좌제2동,37.5815,126.9112
1144055500,서울특별시,마포구,아현동,서울특별시 마포구 아현동,37.5546,126.9561
1144056500,서울특별시,마포구,공덕동,서울특별시 마포구 공덕동,37.550192,126.960025
1144058500,서울특별시,마포구,도화동,서울특별시 마포구 도화동,37.541512,126.94988
1144059000,서울특별시,마포구,용강동,서울특별시 마포구 용강동,37.542212,126.942677
1144060000,서울특별시,마포구,대흥동,서울특별시 마포구 대흥동,37.552063,126.944028
1144061000,서울특별시,마포구,염리동,서울특별시 마포구 염리동,37.547083,126.94565
1144063000,서울특별시,마포구,신수동,서울특별시 마포구 신수동,37.547118,126.935188
1144065500,서울특별시,마포구,서강동,서울특별시 마포구 서강동,37.547758,126.93211
1144066000,서울특별시,마포구,서교동,서울특별시 마포구 서교동,37.555147,126.914663
1144068000,서울특별시,마포구,합정동,서울특별시 마포구 합정동,37.551656,126.911889
1144069000,서울특별시,마포구,망원제1동,서울특별시 마포구 망원제1동,37.555622,126.905597
1144070000,서울특별시,마포구,망원제2동,서울특별시 마포구 망원제2동,37.56025,126.902358
1144071000,서울특별시,마포구,연남동,서울특별시 마포구 연남동,37.564501,126.922027
1144072000,서울특별시,마포구,성산제1동,서울특별시 마포구 성산제1동,37.563408,126.90785
1144073000,서울특별시,마포구,성산제2동,서울특별시 마포구 성산제2동,37.568618,126.909006
1144074000,서울특별시,마포구,상암동,서울특별시 마포구 상암동,37.578325,126.894688
1147051000,서울특별시,양천구,목1동,서울특별시 양천구 목1동,37.530378,126.871232
1147052000,서울특별시,양천구,목2동,서울특별시 양천구 목2동,37.546113,126.871713
1147053000,서울특별시,양천구,목3동,서울특별시 양천구 목3동,37.544801,126.864443
1147054000,서울특별시,양천구,목4동,서울특별시 양천구 목4동,37.532425,126.86835
1147055000,서울특별시,양천구,목5동,서울특별시 양천구 목5동,37.53712,126.881621
1147056000,서울특별시,양천구,신월1동,서울특별시 양천구 신월1동,37.532808,126.831487
1147057000,서울특별시,양천구,신월2동,서울특별시 양천구 신월2동,37.524976,126.844451
1147058000,서울특별시,양천구,신월3동,서울특별시 양천구 신월3동,37.533623,126.829154
1147059000,서울특별시,양천구,신월4동,서울특별시 양천구 신월4동,37.524622,126.840134
1147060000,서울특별시,양천구,신월5동,서울특별시 양천구 신월5동,37.538623,126.827162
1147061000,서울특별시,양천구,신월6동,서울특별시 양천구 신월6동,37.518033,126.845151
1147061100,서울특별시,양천구,신월7동,서울특별시 양천구 신월7동,37.5243065,126.832989
1147062000,서울특별시,양천구,신정1동,서울특별시 양천구 신정1동,37.518529,126.854264
1147063000,서울특별시,양천구,신정2동,서울특별시 양천구 신정2동,37.519231,126.870679
1147064000,서울특별시,양천구,신정3동,서울특별시 양천구 신정3동,37.515169,126.854789
1147065000,서울특별시,양천구,신정4동,서울특별시 양천구 신정4동,37.524546,126.855804
1147067000,서울특별시,양천구,신정6동,서울특별시 양천구 신정6동,37.517041,126.864447
1147068000,서울특별시,양천구,신정7동,서울특별시 양천구 신정7동,37.514393,126.859701
1150051000,서울특별시,강서구,염창동,서울특별시 강서구 염창동,37.553751,126.870978
1150052000,서울특별시,강서구,등촌제1동,서울특별시 강서구 등촌제1동,37.555815,126.858929
1150053000,서울특별시,강서구,등촌제2동,서울특별시 강서구 등촌제2동,37.542658,126.8625
1150053500,서울특별시,강서구,등촌제3동,서울특별시 강서구 등촌제3동,37.558979,126.847881
1150054000,서울특별시,강서구,화곡제1동,서울특별시 강서구 화곡제1동,37.530408,126.841562
1150055000,서울특별시,강서구,화곡제2동,서울특별시 강서구 화곡제2동,37.531817,126.854613
1150056000,서울특별시,강서구,화곡제3동,서울특별시 강서구 화곡제3동,37.542539,126.838423
1150057000,서울특별시,강서구,화곡제4동,서울특별시 강서구 화곡제4동,37.534648,126.860907
1150059000,서울특별시,강서구,화곡본동,서울특별시 강서구 화곡본동,37.544075,126.847725
1150059100,서울특별시,강서구,화곡제6동,서울특별시 강서구 화곡제6동,37.5518173,126.8501301
1150059300,서울특별시,강서구,화곡제8동,서울특별시 강서구 화곡제8동,37.532654,126.848335
1150060300,서울특별시,강서구,가양제1동,서울특별시 강서구 가양제1동,37.569524,126.84471
1150060400,서울특별시,강서구,가양제2동,서울특별시 강서구 가양제2동,37.567376,126.851283
1150060500,서울특별시,강서구,가양제3동,서울특별시 강서구 가양제3동,37.561092,126.860596
1150061100,서울특별시,강서구,발산제1동,서울특별시 강서구 발산제1동,37.553121,126.833169
1150061500,서울특별시,강서구,우장산동,서울특별시 강서구 우장산동,37.548247,126.841885
1150062000,서울특별시,강서구,공항동,서울특별시 강서구 공항동,37.55883,126.810144
1150063000,서울특별시,강서구,방화제1동,서울특별시 강서구 방화제1동,37.570366,126.817026
1150064000,서울특별시,강서구,방화제2동,서울특별시 강서구 방화제2동,37.571742,126.805804
1150064100,서울특별시,강서구,방화제3동,서울특별시 강서구 방화제3동,37.578739,126.813563
1153051000,서울특별시,구로구,신도림동,서울특별시 구로구 신도림동,37.507766,126.880583
1153052000,서울특별시,구로구,구로제1동,서울특별시 구로구 구로제1동,37.493043,126.875758
1153053000,서울특별시,구로구,구로제2동,서울특별시 구로구 구로제2동,37.491377,126.88347
1153054000,서울특별시,구로구,구로제3동,서울특별시 구로구 구로제3동,37.48738,126.890368
1153055000,서울특별시,구로구,구로제4동,서울특별시 구로구 구로제4동,37.491627,126.88917
1153056000,서울특별시,구로구,구로제5동,서울특별시 구로구 구로제5동,37.500159,126.889295
1153059500,서울특별시,구로구,가리봉동,서울특별시 구로구 가리봉동,37.482556,126.889749
1153072000,서울특별시,구로구,고척제1동,서울특별시 구로구 고척제1동,37.500463,126.86286
1153073000,서울특별시,구로구,고척제2동,서울특별시 구로구 고척제2동,37.506706,126.858712
1153074000,서울특별시,구로구,개봉제1동,서울특별시 구로구 개봉제1동,37.500332,126.851126
1153075000,서울특별시,구로구,개봉제2동,서울특별시 구로구 개봉제2동,37.490836,126.856558
1153076000,서울특별시,구로구,개봉제3동,서울특별시 구로구 개봉제3동,37.485993,126.853838
1153077000,서울특별시,구로구,오류제1동,서울특별시 구로구 오류제1동,37.497009,126.845201
1153078000,서울특별시,구로구,오류제2동,서울특별시 구로구 오류제2동,37.488802,126.839537
1153079000,서울특별시,구로구,수궁동,서울특별시 구로구 수궁동,37.493942,126.831463
1153080000,서울특별시,구로구,항동,서울특별시 구로구 항동,37.479048,126.822313
1154551000,서울특별시,금천구,가산동,서울특별시 금천구 가산동,37.476909,126.891733
1154561000,서울특별시,금천구,독산제1동,서울특별시 금천구 독산제1동,37.470245,126.897041
1154562000,서울특별시,금천구,독산제2동,서울특별시 금천구 독산제2동,37.463147,126.903483
1154563000,서울특별시,금천구,독산제3동,서울특별시 금천구 독산제3동,37.47512,126.903252
1154564000,서울특별시,금천구,독산제4동,서울특별시 금천구 독산제4동,37.467545,126.902207
1154567000,서울특별시,금천구,시흥제1동,서울특별시 금천구 시흥제1동,37.453541,126.903263
1154568000,서울특별시,금천구,시흥제2동,서울특별시 금천구 시흥제2동,37.449549,126.914834
1154569000,서울특별시,금천구,시흥제3동,서울특별시 금천구 시흥제3동,37.44031,126.905795
1154570000,서울특별시,금천구,시흥제4동,서울특별시 금천구 시흥제4동,37.459029,126.906192
1154571000,서울특별시,금천구,시흥제5동,서울특별시 금천구 시흥제5동,37.45072,126.908347
1156051500,서울특별시,영등포구,영등포본동,서울특별시 영등포구 영등포본동,37.514683,126.909305
1156053500,서울특별시,영등포구,영등포동,서울특별시 영등포구 영등포동,37.5134,126.9061
1156054000,서울특별시,영등포구,여의동,서울특별시 영등포구 여의동,37.517723,126.934584
1156055000,서울특별시,영등포구,당산제1동,서울특별시 영등포구 당산제1동,37.524964,126.897443
1156056000,서울특별시,영등포구,당산제2동,서울특별시 영등포구 당산제2동,37.531048,126.897327
1156058500,서울특별시,영등포구,도림동,서울특별시 영등포구 도림동,37.509475,126.89595
1156060500,서울특별시,영등포구,문래동,서울특별시 영등포구 문래동,37.517086,126.899466
1156061000,서울특별시,영등포구,양평제1동,서울특별시 영등포구 양평제1동,37.52365,126.888238
1156062000,서울특별시,영등포구,양평제2동,서울특별시 영등포구 양평제2동,37.536474,126.893954
1156063000,서울특별시,영등포구,신길제1동,서울특별시 영등포구 신길제1동,37.511267,126.921428
1156065000,서울특별시,영등포구,신길제3동,서울특별시 영등포구 신길제3동,37.5073003,126.9077425
1156066000,서울특별시,영등포구,신길제4동,서울특별시 영등포구 신길제4동,37.508456,126.911288
1156067000,서울특별시,영등포구,신길제5동,서울특별시 영등포구 신길제5동,37.501618,126.905268
1156068000,서울특별시,영등포구,신길제6동,서울특별시 영등포구 신길제6동,37.499378,126.909881
1156069000,서울특별시,영등포구,신길제7동,서울특별시 영등포구 신길제7동,37.506392,126.921475
1156070000,서울특별시,영등포구,대림제1동,서울특별시 영등포구 대림제1동,37.495469,126.905818
1156071000,서울특별시,영등포구,대림제2동,서울특별시 영등포구 대림제2동,37.492752,126.898294
1156072000,서울특별시,영등포구,대림제3동,서울특별시 영등포구 대림제3동,37.500986,126.899088
1159051000,서울특별시,동작구,노량진제1동,서울특별시 동작구 노량진제1동,37.512308,126.942013
1159052000,서울특별시,동작구,노량진제2동,서울특별시 동작구 노량진제2동,37.508509,126.937352
1159053000,서울특별시,동작구,상도제1동,서울특별시 동작구 상도1동,37.5033,126.9499
1159054000,서울특별시,동작구,상도제2동,서울특별시 동작구 상도제2동,37.50552,126.942296
1159055000,서울특별시,동작구,상도제3동,서울특별시 동작구 상도제3동,37.499112,126.931379
1159056000,서울특별시,동작구,상도제4동,서울특별시 동작구 상도제4동,37.49942,126.941422
1159060500,서울특별시,동작구,흑석동,서울특별시 동작구 흑석동,37.505862,126.966612
1159062000,서울특별시,동작구,사당제1동,서울특별시 동작구 사당제1동,37.483064,126.978668
1159063000,서울특별시,동작구,사당제2동,서울특별시 동작구 사당제2동,37.488732,126.97926
1159064000,서울특별시,동작구,사당제3동,서울특별시 동작구 사당제3동,37.486658,126.972077
1159065000,서울특별시,동작구,사당제4동,서울특별시 동작구 사당제4동,37.480989,126.97167
1159065100,서울특별시,동작구,사당제5동,서울특별시 동작구 사당제5동,37.485752,126.966866
1159066000,서울특별시,동작구,대방동,서울특별시 동작구 대방동,37.508133,126.92635
1159067000,서울특별시,동작구,신대방제1동,서울특별시 동작구 신대방제1동,37.488943,126.91005
1159068000,서울특별시,동작구,신대방제2동,서울특별시 동작구 신대방제2동,37.498442,126.924409
1162052500,서울특별시,관악구,보라매동,서울특별시 관악구 보라매동,37.488146,126.932739
1162054500,서울특별시,관악구,청림동,서울특별시 관악구 청림동,37.491833,126.958577
1162056500,서울특별시,관악구,성현동,서울특별시 관악구 성현동,37.489537,126.948127
1162057500,서울특별시,관악구,행운동,서울특별시 관악구 행운동,37.480654,126.957046
1162058500,서울특별시,관악구,낙성대동,서울특별시 관악구 낙성대동,37.476297,126.958388
1162059500,서울특별시,관악구,청룡동,서울특별시 관악구 청룡동,37.47913,126.941652
1162060500,서울특별시,관악구,은천동,서울특별시 관악구 은천동,37.485309,126.942428
1162061500,서울특별시,관악구,중앙동,서울특별시 관악구 중앙동,37.48426,126.949713
1162062500,서울특별시,관악구,인헌동,서울특별시 관악구 인헌동,37.475097,126.965263
1162063000,서울특별시,관악구,남현동,서울특별시 관악구 남현동,37.474539,126.977837
1162064500,서울특별시,관악구,서원동,서울특별시 관악구 서원동,37.479735,126.9313
1162065500,서울특별시,관악구,신원동,서울특별시 관악구 신원동,37.481611,126.92738
1162066500,서울특별시,관악구,서림동,서울특별시 관악구 서림동,37.474996,126.935
1162068500,서울특별시,관악구,신사동,서울특별시 관악구 신사동,37.485423,126.918112
1162069500,서울특별시,관악구,신림동,서울특별시 관악구 신림동,37.487426,126.927075
1162071500,서울특별시,관악구,난향동,서울특별시 관악구 난향동,37.461429,126.918842
1162072500,서울특별시,관악구,조원동,서울특별시 관악구 조원동,37.48263,126.907865
1162073500,서울특별시,관악구,대학동,서울특별시 관악구 대학동,37.470615,126.936991
1162074500,서울특별시,관악구,삼성동,서울특별시 관악구 삼성동,37.470101,126.932963
1162076500,서울특별시,관악구,미성동,서울특별시 관악구 미성동,37.476176,126.915553
1162077500,서울특별시,관악구,난곡동,서울특별시 관악구 난곡동,37.470963,126.921651
1165051000,서울특별시,서초구,서초1동,서울특별시 서초구 서초1동,37.490119,127.019508
1165052000,서울특별시,서초구,서초2동,서울특별시 서초구 서초2동,37.49208,127.02496
1165053000,서울특별시,서초구,서초3동,서울특별시 서초구 서초3동,37.483668,127.011972
1165053100,서울특별시,서초구,서초4동,서울특별시 서초구 서초4동,37.502668,127.022159
1165054000,서울특별시,서초구,잠원동,서울특별시 서초구 잠원동,37.514962,127.014077
1165055000,서울특별시,서초구,반포본동,서울특별시 서초구 반포본동,37.502144,126.986822
1165056000,서울특별시,서초구,반포1동,서울특별시 서초구 반포1동,37.50509,127.013507
1165057000,서울특별시,서초구,반포2동,서울특별시 서초구 반포2동,37.504425,126.998281
1165058000,서울특별시,서초구,반포3동,서울특별시 서초구 반포3동,37.512092,127.005629
1165058100,서울특별시,서초구,반포4동,서울특별시 서초구 반포4동,37.497431,127.000385
1165059000,서울특별시,서초구,방배본동,서울특별시 서초구 방배본동,37.494145,126.988785
1165060000,서울특별시,서초구,방배1동,서울특별시 서초구 방배1동,37.48328,126.994557
1165061000,서울특별시,서초구,방배2동,서울특별시 서초구 방배2동,37.479744,126.985511
1165062000,서울특별시,서초구,방배3동,서울특별시 서초구 방배3동,37.478441,126.999992
1165062100,서울특별시,서초구,방배4동,서울특별시 서초구 방배4동,37.489007,126.992334
1165065100,서울특별시,서초구,양재1동,서울특별시 서초구 양재1동,37.471641,127.026744
1165065200,서울특별시,서초구,양재2동,서울특별시 서초구 양재2동,37.470601,127.041188
1165066000,서울특별시,서초구,내곡동,서울특별시 서초구 내곡동,37.458103,127.076678
1168051000,서울특별시,강남구,신사동,서울특별시 강남구 신사동,37.52401,127.022781
1168052100,서울특별시,강남구,논현1동,서울특별시 강남구 논현1동,37.511571,127.028461
1168053100,서울특별시,강남구,논현2동,서울특별시 강남구 논현2동,37.517342,127.037213
1168054500,서울특별시,강남구,압구정동,서울특별시 강남구 압구정동,37.530642,127.030713
1168056500,서울특별시,강남구,청담동,서울특별시 강남구 청담동,37.525107,127.049291
1168058000,서울특별시,강남구,삼성1동,서울특별시 강남구 삼성1동,37.514442,127.062532
1168059000,서울특별시,강남구,삼성2동,서울특별시 강남구 삼성2동,37.5112,127.04595
1168060000,서울특별시,강남구,대치1동,서울특별시 강남구 대치1동,37.493182,127.056705
1168061000,서울특별시,강남구,대치2동,서울특별시 강남구 대치2동,37.502285,127.064207
1168063000,서울특별시,강남구,대치4동,서울특별시 강남구 대치4동,37.499742,127.057913
1168064000,서울특별시,강남구,역삼1동,서울특별시 강남구 역삼1동,37.495484,127.033357
1168065000,서울특별시,강남구,역삼2동,서울특별시 강남구 역삼2동,37.495967,127.046803
1168065500,서울특별시,강남구,도곡1동,서울특별시 강남구 도곡1동,37.488238,127.039025
1168065600,서울특별시,강남구,도곡2동,서울특별시 강남구 도곡2동,37.483743,127.046434
1168066000,서울특별시,강남구,개포1동,서울특별시 강남구 개포1동,37.482741,127.055737
1168067000,서울특별시,강남구,개포2동,서울특별시 강남구 개포2동,37.489772,127.068952
1168067500,서울특별시,강남구,개포3동,서울특별시 강남구 개포3동,37.492665,127.075601
1168069000,서울특별시,강남구,개포4동,서울특별시 강남구 개포4동,37.477171,127.049875
1168070000,서울특별시,강남구,세곡동,서울특별시 강남구 세곡동,37.464368,127.104355
1168072000,서울특별시,강남구,일원본동,서울특별시 강남구 일원본동,37.483348,127.086463
1168073000,서울특별시,강남구,일원1동,서울특별시 강남구 일원1동,37.493514,127.089247
1168075000,서울특별시,강남구,수서동,서울특별시 강남구 수서동,37.486747,127.105401
1171051000,서울특별시,송파구,풍납1동,서울특별시 송파구 풍납1동,37.538092,127.122075
1171052000,서울특별시,송파구,풍납2동,서울특별시 송파구 풍납2동,37.528833,127.116825
1171053100,서울특별시,송파구,거여1동,서울특별시 송파구 거여1동,37.496964,127.143232
1171053200,서울특별시,송파구,거여2동,서울특별시 송파구 거여2동,37.49358,127.146876
1171054000,서울특별시,송파구,마천1동,서울특별시 송파구 마천1동,37.49602,127.149972
1171055000,서울특별시,송파구,마천2동,서울특별시 송파구 마천2동,37.496848,127.148519
1171056100,서울특별시,송파구,방이1동,서울특별시 송파구 방이1동,37.510933,127.123925
1171056200,서울특별시,송파구,방이2동,서울특별시 송파구 방이2동,37.516444,127.111487
1171056600,서울특별시,송파구,오륜동,서울특별시 송파구 오륜동,37.515425,127.1343
1171057000,서울특별시,송파구,오금동,서울특별시 송파구 오금동,37.503053,127.128149
1171058000,서울특별시,송파구,송파1동,서울특별시 송파구 송파1동,37.50626,127.109339
1171059000,서울특별시,송파구,송파2동,서울특별시 송파구 송파2동,37.502317,127.116765
1171060000,서울특별시,송파구,석촌동,서울특별시 송파구 석촌동,37.503592,127.1037
1171061000,서울특별시,송파구,삼전동,서울특별시 송파구 삼전동,37.502714,127.092535
1171062000,서울특별시,송파구,가락본동,서울특별시 송파구 가락본동,37.495557,127.121786
1171063100,서울특별시,송파구,가락1동,서울특별시 송파구 가락1동,37.49649,127.109865
1171063200,서울특별시,송파구,가락2동,서울특별시 송파구 가락2동,37.498705,127.126671
1171064100,서울특별시,송파구,문정1동,서울특별시 송파구 문정1동,37.490098,127.124172
1171064200,서울특별시,송파구,문정2동,서울특별시 송파구 문정2동,37.489823,127.110811
1171064600,서울특별시,송파구,장지동,서울특별시 송파구 장지동,37.4785,127.1354
1171064700,서울특별시,송파구,위례동,서울특별시 송파구 위례동,37.481166,127.143938
1171065000,서울특별시,송파구,잠실본동,서울특별시 송파구 잠실본동,37.506072,127.083204
1171067000,서울특별시,송파구,잠실2동,서울특별시 송파구 잠실2동,37.511949,127.088559
1171068000,서울특별시,송파구,잠실3동,서울특별시 송파구 잠실3동,37.513212,127.094359
1171069000,서울특별시,송파구,잠실4동,서울특별시 송파구 잠실4동,37.520109,127.112267
1171071000,서울특별시,송파구,잠실6동,서울특별시 송파구 잠실6동,37.518142,127.10065
1171072000,서울특별시,송파구,잠실7동,서울특별시 송파구 잠실7동,37.508678,127.077115
1174051500,서울특별시,강동구,강일동,서울특별시 강동구 강일동,37.564978,127.173909
1174052500,서울특별시,강동구,상일제1동,서울특별시 강동구 상일제1동,37.550661,127.164906
1174052600,서울특별시,강동구,상일제2동,서울특별시 강동구 상일제2동,37.549952,127.17588
1174053000,서울특별시,강동구,명일제1동,서울특별시 강동구 명일제1동,37.551245,127.144366
1174054000,서울특별시,강동구,명일제2동,서울특별시 강동구 명일제2동,37.546366,127.151343
1174055000,서울특별시,강동구,고덕제1동,서울특별시 강동구 고덕제1동,37.557259,127.151538
1174056000,서울특별시,강동구,고덕제2동,서울특별시 강동구 고덕제2동,37.5605,127.16435
1174057000,서울특별시,강동구,암사제1동,서울특별시 강동구 암사제1동,37.551508,127.132663
1174058000,서울특별시,강동구,암사제2동,서울특별시 강동구 암사제2동,37.551748,127.127207
1174059000,서울특별시,강동구,암사제3동,서울특별시 강동구 암사제3동,37.554991,127.140825
1174060000,서울특별시,강동구,천호제1동,서울특별시 강동구 천호제1동,37.545016,127.136807
1174061000,서울특별시,강동구,천호제2동,서울특별시 강동구 천호제2동,37.543526,127.125435
1174062000,서울특별시,강동구,천호제3동,서울특별시 강동구 천호제3동,37.536146,127.133227
1174064000,서울특별시,강동구,성내제1동,서울특별시 강동구 성내제1동,37.530442,127.122425
1174065000,서울특별시,강동구,성내제2동,서울특별시 강동구 성내제2동,37.532425,127.129563
1174066000,서울특별시,강동구,성내제3동,서울특별시 강동구 성내제3동,37.52601,127.13287
1174068500,서울특별시,강동구,길동,서울특별시 강동구 길동,37.53456,127.142679
1174069000,서울특별시,강동구,둔촌제1동,서울특별시 강동구 둔촌제1동,37.525061,127.136006
1174070000,서울특별시,강동구,둔촌제2동,서울특별시 강동구 둔촌제2동,37.533289,127.141922
2611051000,부산광역시,중구,중앙동,부산광역시 중구 중앙동,35.101302,129.035346
2611052000,부산광역시,중구,동광동,부산광역시 중구 동광동,35.107514,129.035294
2611053000,부산광역시,중구,대청동,부산광역시 중구 대청동,35.104237,129.031089
2611054500,부산광역시,중구,보수동,부산광역시 중구 보수동,35.106198,129.024581
2611056000,부산광역시,중구,부평동,부산광역시 중구 부평동,35.100388,129.026516
2611057000,부산광역시,중구,광복동,부산광역시 중구 광복동,35.100035,129.030438
2611058000,부산광역시,중구,남포동,부산광역시 중구 남포동,35.097386,129.031678
2611059000,부산광역시,중구,영주제1동,부산광역시 중구 영주제1동,35.11112,129.035015
2611060000,부산광역시,중구,영주제2동,부산광역시 중구 영주제2동,35.111554,129.031864
2614051000,부산광역시,서구,동대신제1동,부산광역시 서구 동대신제1동,35.109616,129.020255
2614052000,부산광역시,서구,동대신제2동,부산광역시 서구 동대신제2동,35.112974,129.023182
2614053000,부산광역시,서구,동대신제3동,부산광역시 서구 동대신제3동,35.114427,129.017259
2614054000,부산광역시,서구,서대신제1동,부산광역시 서구 서대신제1동,35.111079,129.014416
2614056000,부산광역시,서구,서대신제3동,부산광역시 서구 서대신제3동,35.113484,129.011928
2614057000,부산광역시,서구,서대신제4동,부산광역시 서구 서대신제4동,35.119211,129.0118
2614059000,부산광역시,서구,부민동,부산광역시 서구 부민동,35.103837,129.018465
2614061500,부산광역시,서구,아미동,부산광역시 서구 아미동,35.100185,129.015414
2614063000,부산광역시,서구,초장동,부산광역시 서구 초장동,35.096003,129.020294
2614064000,부산광역시,서구,충무동,부산광역시 서구 충무동,35.098008,129.021625
2614065000,부산광역시,서구,남부민제1동,부산광역시 서구 남부민제1동,35.092759,129.023299
2614066000,부산광역시,서구,남부민제2동,부산광역시 서구 남부민제2동,35.084507,129.020529
2614068000,부산광역시,서구,암남동,부산광역시 서구 암남동,35.079849,129.02098
2617051000,부산광역시,동구,초량제1동,부산광역시 동구 초량제1동,35.113931,129.036958
2617052000,부산광역시,동구,초량제2동,부산광역시 동구 초량제2동,35.11655,129.038465
2617053000,부산광역시,동구,초량제3동,부산광역시 동구 초량제3동,35.121326,129.039801
2617055000,부산광역시,동구,초량제6동,부산광역시 동구 초량제6동,35.120044,129.034514
2617056000,부산광역시,동구,수정제1동,부산광역시 동구 수정제1동,35.125399,129.042276
2617057000,부산광역시,동구,수정제2동,부산광역시 동구 수정제2동,35.129981,129.042601
2617059000,부산광역시,동구,수정제4동,부산광역시 동구 수정제4동,35.12712,129.040705
2617060000,부산광역시,동구,수정제5동,부산광역시 동구 수정제5동,35.135167,129.041606
2617064500,부산광역시,동구,좌천동,부산광역시 동구 좌천동,35.131433,129.049156
2617065000,부산광역시,동구,범일제1동,부산광역시 동구 범일제1동,35.141315,129.049128
2617066000,부산광역시,동구,범일제2동,부산광역시 동구 범일제2동,35.135134,129.059828
2617068000,부산광역시,동구,범일제5동,부산광역시 동구 범일제5동,35.130498,129.053803
2620053000,부산광역시,영도구,남항동,부산광역시 영도구 남항동,35.089945,129.037618
2620054000,부산광역시,영도구,영선제1동,부산광역시 영도구 영선제1동,35.090253,129.044792
2620055000,부산광역시,영도구,영선제2동,부산광역시 영도구 영선제2동,35.087024,129.041287
2620058500,부산광역시,영도구,신선동,부산광역시 영도구 신선동,35.08338,129.045143
2620059000,부산광역시,영도구,봉래제1동,부산광역시 영도구 봉래제1동,35.09351,129.044308
2620060500,부산광역시,영도구,봉래제2동,부산광역시 영도구 봉래제2동,35.094209,129.046159
2620063000,부산광역시,영도구,청학제1동,부산광역시 영도구 청학제1동,35.096882,129.058401
2620064000,부산광역시,영도구,청학제2동,부산광역시 영도구 청학제2동,35.091891,129.065709
2620065000,부산광역시,영도구,동삼제1동,부산광역시 영도구 동삼제1동,35.074895,129.068425
2620066000,부산광역시,영도구,동삼제2동,부산광역시 영도구 동삼제2동,35.068394,129.083016
2620067000,부산광역시,영도구,동삼제3동,부산광역시 영도구 동삼제3동,35.08467,129.068667
2623051000,부산광역시,부산진구,부전제1동,부산광역시 부산진구 부전제1동,35.163524,129.063001
2623052000,부산광역시,부산진구,부전제2동,부산광역시 부산진구 부전제2동,35.152641,129.056764
2623054000,부산광역시,부산진구,연지동,부산광역시 부산진구 연지동,35.172791,129.052775
2623055000,부산광역시,부산진구,초읍동,부산광역시 부산진구 초읍동,35.18149,129.047353
2623056000,부산광역시,부산진구,양정제1동,부산광역시 부산진구 양정제1동,35.172168,129.068734
2623057000,부산광역시,부산진구,양정제2동,부산광역시 부산진구 양정제2동,35.172876,129.075756
2623060000,부산광역시,부산진구,전포제1동,부산광역시 부산진구 전포제1동,35.154418,129.067383
2623061000,부산광역시,부산진구,전포제2동,부산광역시 부산진구 전포제2동,35.161692,129.066201
2623064000,부산광역시,부산진구,부암제1동,부산광역시 부산진구 부암제1동,35.163312,129.048549
2623066000,부산광역시,부산진구,부암제3동,부산광역시 부산진구 부암제3동,35.168931,129.039587
2623067000,부산광역시,부산진구,당감제1동,부산광역시 부산진구 당감제1동,35.164467,129.035642
2623068000,부산광역시,부산진구,당감제2동,부산광역시 부산진구 당감제2동,35.157813,129.047837
2623070000,부산광역시,부산진구,당감제4동,부산광역시 부산진구 당감제4동,35.168239,129.03341
2623071000,부산광역시,부산진구,가야제1동,부산광역시 부산진구 가야제1동,35.153272,129.034248
2623072000,부산광역시,부산진구,가야제2동,부산광역시 부산진구 가야제2동,35.149216,129.031763
2623074000,부산광역시,부산진구,개금제1동,부산광역시 부산진구 개금제1동,35.152616,129.021951
2623075000,부산광역시,부산진구,개금제2동,부산광역시 부산진구 개금제2동,35.142023,129.018307
2623076000,부산광역시,부산진구,개금제3동,부산광역시 부산진구 개금제3동,35.155769,129.021927
2623077000,부산광역시,부산진구,범천제1동,부산광역시 부산진구 범천제1동,35.147034,129.061013
2623078000,부산광역시,부산진구,범천제2동,부산광역시 부산진구 범천제2동,35.146497,129.056171
2626051000,부산광역시,동래구,수민동,부산광역시 동래구 수민동,35.196105,129.091053
2626052000,부산광역시,동래구,복산동,부산광역시 동래구 복산동,35.20581,129.086063
2626054500,부산광역시,동래구,명륜동,부산광역시 동래구 명륜동,35.212492,129.081523
2626055000,부산광역시,동래구,온천제1동,부산광역시 동래구 온천제1동,35.220071,129.0801
2626056000,부산광역시,동래구,온천제2동,부산광역시 동래구 온천제2동,35.208039,129.072956
2626057000,부산광역시,동래구,온천제3동,부산광역시 동래구 온천제3동,35.203446,129.065518
2626058000,부산광역시,동래구,사직제1동,부산광역시 동래구 사직제1동,35.199021,129.061867
2626059000,부산광역시,동래구,사직제2동,부산광역시 동래구 사직제2동,35.199274,129.057469
2626060000,부산광역시,동래구,사직제3동,부산광역시 동래구 사직제3동,35.199467,129.069435
2626074000,부산광역시,동래구,안락제1동,부산광역시 동래구 안락제1동,35.19715,129.098571
2626075000,부산광역시,동래구,안락제2동,부산광역시 동래구 안락제2동,35.1977,129.110048
2626076100,부산광역시,동래구,명장제1동,부산광역시 동래구 명장제1동,35.204735,129.104205
2626076200,부산광역시,동래구,명장제2동,부산광역시 동래구 명장제2동,35.207943,129.102438
2629051000,부산광역시,남구,대연제1동,부산광역시 남구 대연제1동,35.132965,129.091799
2629053000,부산광역시,남구,대연제3동,부산광역시 남구 대연제3동,35.139887,129.103902
2629054000,부산광역시,남구,대연제4동,부산광역시 남구 대연제4동,35.129821,129.091381
2629055000,부산광역시,남구,대연제5동,부산광역시 남구 대연제5동,35.138468,129.090104
2629056000,부산광역시,남구,대연제6동,부산광역시 남구 대연제6동,35.137263,129.083106
2629057000,부산광역시,남구,용호제1동,부산광역시 남구 용호제1동,35.12081,129.109025
2629058000,부산광역시,남구,용호제2동,부산광역시 남구 용호제2동,35.114848,129.113424
2629059000,부산광역시,남구,용호제3동,부산광역시 남구 용호제3동,35.121015,129.112812
2629060000,부산광역시,남구,용호제4동,부산광역시 남구 용호제4동,35.113219,129.110366
2629061000,부산광역시,남구,용당동,부산광역시 남구 용당동,35.117669,129.095025
2629062000,부산광역시,남구,감만제1동,부산광역시 남구 감만제1동,35.116825,129.080622
2629063000,부산광역시,남구,감만제2동,부산광역시 남구 감만제2동,35.1225,129.08453
2629064500,부산광역시,남구,우암동,부산광역시 남구 우암동,35.125012,129.076906
2629068000,부산광역시,남구,문현제1동,부산광역시 남구 문현제1동,35.142542,129.071319
2629069000,부산광역시,남구,문현제2동,부산광역시 남구 문현제2동,35.14526,129.068628
2629070000,부산광역시,남구,문현제3동,부산광역시 남구 문현제3동,35.138174,129.071663
2629071000,부산광역시,남구,문현제4동,부산광역시 남구 문현제4동,35.136394,129.069197
2632051000,부산광역시,북구,구포제1동,부산광역시 북구 구포제1동,35.2062332,129.0056119
2632052000,부산광역시,북구,구포제2동,부산광역시 북구 구포제2동,35.201677,128.999424
2632052100,부산광역시,북구,구포제3동,부산광역시 북구 구포제3동,35.194937,129.008752
2632053000,부산광역시,북구,금곡동,부산광역시 북구 금곡동,35.250096,129.012768
2632054100,부산광역시,북구,화명제1동,부산광역시 북구 화명제1동,35.232756,129.013817
2632054200,부산광역시,북구,화명제2동,부산광역시 북구 화명제2동,35.243516,129.019842
2632054300,부산광역시,북구,화명제3동,부산광역시 북구 화명제3동,35.231889,129.010073
2632055000,부산광역시,북구,덕천제1동,부산광역시 북구 덕천제1동,35.212469,129.016658
2632056000,부산광역시,북구,덕천제2동,부산광역시 북구 덕천제2동,35.212388,129.007874
2632056100,부산광역시,북구,덕천제3동,부산광역시 북구 덕천제3동,35.209952,129.017429
2632057100,부산광역시,북구,만덕제1동,부산광역시 북구 만덕제1동,35.213514,129.036402
2632057200,부산광역시,북구,만덕제2동,부산광역시 북구 만덕제2동,35.210218,129.037178
2632057300,부산광역시,북구,만덕제3동,부산광역시 북구 만덕제3동,35.211408,129.029205
2635051000,부산광역시,해운대구,우제1동,부산광역시 해운대구 우제1동,35.162929,129.158088
2635052000,부산광역시,해운대구,우제2동,부산광역시 해운대구 우제2동,35.171206,129.139925
2635052500,부산광역시,해운대구,우제3동,부산광역시 해운대구 우제3동,35.159705,129.143301
2635053000,부산광역시,해운대구,중제1동,부산광역시 해운대구 중제1동,35.162562,129.164251
2635054000,부산광역시,해운대구,중제2동,부산광역시 해운대구 중제2동,35.162017,129.17928
2635055100,부산광역시,해운대구,좌제1동,부산광역시 해운대구 좌제1동,35.170909,129.174187
2635055200,부산광역시,해운대구,좌제2동,부산광역시 해운대구 좌제2동,35.16915,129.182607
2635055300,부산광역시,해운대구,좌제3동,부산광역시 해운대구 좌제3동,35.17223,129.166609
2635055400,부산광역시,해운대구,좌제4동,부산광역시 해운대구 좌제4동,35.177885,129.176225
2635056000,부산광역시,해운대구,송정동,부산광역시 해운대구 송정동,35.183688,129.203635
2635057000,부산광역시,해운대구,반여제1동,부산광역시 해운대구 반여제1동,35.201148,129.11893
2635058000,부산광역시,해운대구,반여제2동,부산광역시 해운대구 반여제2동,35.195932,129.130106
2635059000,부산광역시,해운대구,반여제3동,부산광역시 해운대구 반여제3동,35.201018,129.133506
2635059500,부산광역시,해운대구,반여제4동,부산광역시 해운대구 반여제4동,35.209234,129.117233
2635061000,부산광역시,해운대구,반송제1동,부산광역시 해운대구 반송제1동,35.225175,129.147884
2635062000,부산광역시,해운대구,반송제2동,부산광역시 해운대구 반송제2동,35.228878,129.160454
2635065000,부산광역시,해운대구,재송제1동,부산광역시 해운대구 재송제1동,35.184617,129.125102
2635066000,부산광역시,해운대구,재송제2동,부산광역시 해운대구 재송제2동,35.189653,129.125385
2638051000,부산광역시,사하구,괴정제1동,부산광역시 사하구 괴정제1동,35.099655,128.989365
2638052000,부산광역시,사하구,괴정제2동,부산광역시 사하구 괴정제2동,35.10339,129.004012
2638053000,부산광역시,사하구,괴정제3동,부산광역시 사하구 괴정제3동,35.100344,128.998031
2638054000,부산광역시,사하구,괴정제4동,부산광역시 사하구 괴정제4동,35.099142,128.983184
2638055000,부산광역시,사하구,당리동,부산광역시 사하구 당리동,35.104012,128.974569
2638056100,부산광역시,사하구,하단제1동,부산광역시 사하구 하단제1동,35.104008,128.96424
2638056200,부산광역시,사하구,하단제2동,부산광역시 사하구 하단제2동,35.114632,128.960488
2638057100,부산광역시,사하구,신평제1동,부산광역시 사하구 신평제1동,35.089248,128.973241
2638057200,부산광역시,사하구,신평제2동,부산광역시 사하구 신평제2동,35.094969,128.961605
2638058000,부산광역시,사하구,장림제1동,부산광역시 사하구 장림제1동,35.083072,128.96689
2638059000,부산광역시,사하구,장림제2동,부산광역시 사하구 장림제2동,35.077903,128.972617
2638060100,부산광역시,사하구,다대제1동,부산광역시 사하구 다대제1동,35.05917,128.971329
2638060200,부산광역시,사하구,다대제2동,부산광역시 사하구 다대제2동,35.063467,128.9822
2638061000,부산광역시,사하구,구평동,부산광역시 사하구 구평동,35.081929,128.987782
2638062000,부산광역시,사하구,감천제1동,부산광역시 사하구 감천제1동,35.088417,129.002831
2638063000,부산광역시,사하구,감천제2동,부산광역시 사하구 감천제2동,35.094605,129.009319
2641051000,부산광역시,금정구,서제1동,부산광역시 금정구 서제1동,35.218343,129.099138
2641052000,부산광역시,금정구,서제2동,부산광역시 금정구 서제2동,35.212897,129.104503
2641053000,부산광역시,금정구,서제3동,부산광역시 금정구 서제3동,35.217249,129.103927
2641055500,부산광역시,금정구,금사회동동,부산광역시 금정구 금사회동동,35.219479,129.111386
2641057000,부산광역시,금정구,부곡제1동,부산광역시 금정구 부곡제1동,35.22446,129.092143
2641058000,부산광역시,금정구,부곡제2동,부산광역시 금정구 부곡제2동,35.22984,129.092714
2641059000,부산광역시,금정구,부곡제3동,부산광역시 금정구 부곡제3동,35.24058,129.093805
2641059100,부산광역시,금정구,부곡제4동,부산광역시 금정구 부곡제4동,35.2199,129.088562
2641060000,부산광역시,금정구,장전제1동,부산광역시 금정구 장전제1동,35.238217,129.084502
2641061000,부산광역시,금정구,장전제2동,부산광역시 금정구 장전제2동,35.227764,129.080971
2641063500,부산광역시,금정구,선두구동,부산광역시 금정구 선두구동,35.298252,129.113356
2641066500,부산광역시,금정구,청룡노포동,부산광역시 금정구 청룡노포동,35.275256,129.089831
2641067000,부산광역시,금정구,남산동,부산광역시 금정구 남산동,35.271672,129.092264
2641068000,부산광역시,금정구,구서제1동,부산광역시 금정구 구서제1동,35.24516,129.086871
2641069000,부산광역시,금정구,구서제2동,부산광역시 금정구 구서제2동,35.259568,129.087949
2641070000,부산광역시,금정구,금성동,부산광역시 금정구 금성동,35.250335,129.056137
2644051000,부산광역시,강서구,대저1동,부산광역시 강서구 대저1동,35.21547,128.976825
2644052000,부산광역시,강서구,대저2동,부산광역시 강서구 대저2동,35.178581,128.956467
2644053000,부산광역시,강서구,강동동,부산광역시 강서구 강동동,35.214548,128.935235
2644053500,부산광역시,강서구,명지1동,부산광역시 강서구 명지1동,35.100167,128.907049
2644054500,부산광역시,강서구,명지2동,부산광역시 강서구 명지2동,35.084563,128.900069
2644055000,부산광역시,강서구,가락동,부산광역시 강서구 가락동,35.19642,128.901843
2644056000,부산광역시,강서구,녹산동,부산광역시 강서구 녹산동,35.118699,128.879638
2644058000,부산광역시,강서구,가덕도동,부산광역시 강서구 가덕도동,35.056681,128.831756
2647061000,부산광역시,연제구,거제제1동,부산광역시 연제구 거제제1동,35.191857,129.075622
2647062000,부산광역시,연제구,거제제2동,부산광역시 연제구 거제제2동,35.187784,129.070324
2647063000,부산광역시,연제구,거제제3동,부산광역시 연제구 거제제3동,35.184311,129.071163
2647064000,부산광역시,연제구,거제제4동,부산광역시 연제구 거제제4동,35.180053,129.065917
2647065000,부산광역시,연제구,연산제1동,부산광역시 연제구 연산제1동,35.190042,129.090439
2647066000,부산광역시,연제구,연산제2동,부산광역시 연제구 연산제2동,35.179975,129.079324
2647067000,부산광역시,연제구,연산제3동,부산광역시 연제구 연산제3동,35.173343,129.094216
2647068000,부산광역시,연제구,연산제4동,부산광역시 연제구 연산제4동,35.186309,129.084902
2647069000,부산광역시,연제구,연산제5동,부산광역시 연제구 연산제5동,35.184504,129.076049
2647070000,부산광역시,연제구,연산제6동,부산광역시 연제구 연산제6동,35.177485,129.08965
2647072000,부산광역시,연제구,연산제8동,부산광역시 연제구 연산제8동,35.188128,129.098762
2647073000,부산광역시,연제구,연산제9동,부산광역시 연제구 연산제9동,35.185919,129.109383
2650066000,부산광역시,수영구,남천제1동,부산광역시 수영구 남천제1동,35.142702,129.110324
2650067000,부산광역시,수영구,남천제2동,부산광역시 수영구 남천제2동,35.143832,129.114725
2650073000,부산광역시,수영구,수영동,부산광역시 수영구 수영동,35.170508,129.116019
2650074000,부산광역시,수영구,망미제1동,부산광역시 수영구 망미제1동,35.173471,129.104951
2650075000,부산광역시,수영구,망미제2동,부산광역시 수영구 망미제2동,35.175289,129.115234
2650076000,부산광역시,수영구,광안제1동,부산광역시 수영구 광안제1동,35.162893,129.112438
2650077000,부산광역시,수영구,광안제2동,부산광역시 수영구 광안제2동,35.155748,129.113819
2650078000,부산광역시,수영구,광안제3동,부산광역시 수영구 광안제3동,35.167531,129.112488
2650079000,부산광역시,수영구,광안제4동,부산광역시 수영구 광안제4동,35.154134,129.111946
2650080000,부산광역시,수영구,민락동,부산광역시 수영구 민락동,35.157289,129.125399
2653058000,부산광역시,사상구,삼락동,부산광역시 사상구 삼락동,35.176942,128.977725
2653059100,부산광역시,사상구,모라제1동,부산광역시 사상구 모라제1동,35.18698,128.989962
2653059300,부산광역시,사상구,모라제3동,부산광역시 사상구 모라제3동,35.184676,128.996062
2653060000,부산광역시,사상구,덕포제1동,부산광역시 사상구 덕포제1동,35.169402,128.985701
2653061000,부산광역시,사상구,덕포제2동,부산광역시 사상구 덕포제2동,35.174486,128.98293
2653062000,부산광역시,사상구,괘법동,부산광역시 사상구 괘법동,35.163764,128.987171
2653064500,부산광역시,사상구,감전동,부산광역시 사상구 감전동,35.154336,128.979442
2653065000,부산광역시,사상구,주례제1동,부산광역시 사상구 주례제1동,35.151389,129.001174
2653066000,부산광역시,사상구,주례제2동,부산광역시 사상구 주례제2동,35.150066,129.010421
2653066100,부산광역시,사상구,주례제3동,부산광역시 사상구 주례제3동,35.147349,129.0014
2653067000,부산광역시,사상구,학장동,부산광역시 사상구 학장동,35.14411,128.987336
2653068000,부산광역시,사상구,엄궁동,부산광역시 사상구 엄궁동,35.128703,128.972129
2671025000,부산광역시,기장군,기장읍,부산광역시 기장군 기장읍,35.238735,129.215757
2671025300,부산광역시,기장군,장안읍,부산광역시 기장군 장안읍,35.312458,129.244706
2671025600,부산광역시,기장군,정관읍,부산광역시 기장군 정관읍,35.325481,129.180397
2671025900,부산광역시,기장군,일광읍,부산광역시 기장군 일광읍,35.264938,129.233359
2671033000,부산광역시,기장군,철마면,부산광역시 기장군 철마면,35.275283,129.149713
2711051700,대구광역시,중구,동인동,대구광역시 중구 동인동,35.867912,128.60915
2711054500,대구광역시,중구,삼덕동,대구광역시 중구 삼덕동,35.865549,128.6089
2711056500,대구광역시,중구,성내1동,대구광역시 중구 성내1동,35.866657,128.595769
2711057500,대구광역시,중구,성내2동,대구광역시 중구 성내2동,35.86835,128.590384
2711058500,대구광역시,중구,성내3동,대구광역시 중구 성내3동,35.875011,128.581805
2711059500,대구광역시,중구,대신동,대구광역시 중구 대신동,35.865545,128.576268
2711064000,대구광역시,중구,남산1동,대구광역시 중구 남산1동,35.859336,128.590427
2711065000,대구광역시,중구,남산2동,대구광역시 중구 남산2동,35.86404,128.589537
2711066000,대구광역시,중구,남산3동,대구광역시 중구 남산3동,35.859871,128.585488
2711067000,대구광역시,중구,남산4동,대구광역시 중구 남산4동,35.858198,128.580574
2711068000,대구광역시,중구,대봉1동,대구광역시 중구 대봉1동,35.861649,128.6043
2711069000,대구광역시,중구,대봉2동,대구광역시 중구 대봉2동,35.858767,128.599347
2714051000,대구광역시,동구,신암1동,대구광역시 동구 신암1동,35.884307,128.616355
2714052000,대구광역시,동구,신암2동,대구광역시 동구 신암2동,35.88005,128.612664
2714053000,대구광역시,동구,신암3동,대구광역시 동구 신암3동,35.879664,128.623135
2714054000,대구광역시,동구,신암4동,대구광역시 동구 신암4동,35.885101,128.629281
2714054100,대구광역시,동구,신암5동,대구광역시 동구 신암5동,35.889767,128.633088
2714055500,대구광역시,동구,신천1.2동,대구광역시 동구 신천1.2동,35.869989,128.614739
2714057000,대구광역시,동구,신천3동,대구광역시 동구 신천3동,35.875426,128.623591
2714058000,대구광역시,동구,신천4동,대구광역시 동구 신천4동,35.871757,128.6293
2714059000,대구광역시,동구,효목1동,대구광역시 동구 효목1동,35.881621,128.644888
2714060000,대구광역시,동구,효목2동,대구광역시 동구 효목2동,35.878121,128.641327
2714061500,대구광역시,동구,도평동,대구광역시 동구 도평동,35.90998,128.650092
2714062000,대구광역시,동구,불로.봉무동,대구광역시 동구 불로.봉무동,35.91025,128.639327
2714064000,대구광역시,동구,지저동,대구광역시 동구 지저동,35.893439,128.638318
2714065500,대구광역시,동구,동촌동,대구광역시 동구 동촌동,35.889903,128.64968
2714067000,대구광역시,동구,방촌동,대구광역시 동구 방촌동,35.880056,128.665247
2714068500,대구광역시,동구,해안동,대구광역시 동구 해안동,35.882128,128.671602
2714072000,대구광역시,동구,안심1동,대구광역시 동구 안심1동,35.870393,128.701506
2714073000,대구광역시,동구,안심2동,대구광역시 동구 안심2동,35.87543,128.686971
2714074200,대구광역시,동구,안심3동,대구광역시 동구 안심3동,35.867897,128.724573
2714074700,대구광역시,동구,안심4동,대구광역시 동구 안심4동,35.870126,128.711056
2714075500,대구광역시,동구,혁신동,대구광역시 동구 혁신동,35.877961,128.711575
2714076000,대구광역시,동구,공산동,대구광역시 동구 공산동,35.94019,128.644192
2717051000,대구광역시,서구,내당1동,대구광역시 서구 내당1동,35.860623,128.560741
2717052500,대구광역시,서구,내당2.3동,대구광역시 서구 내당2.3동,35.863248,128.57078
2717054000,대구광역시,서구,내당4동,대구광역시 서구 내당4동,35.85894,128.55175
2717055000,대구광역시,서구,비산1동,대구광역시 서구 비산1동,35.881192,128.568946
2717056500,대구광역시,서구,비산2.3동,대구광역시 서구 비산2.3동,35.875815,128.574713
2717058000,대구광역시,서구,비산4동,대구광역시 서구 비산4동,35.869751,128.574311
2717059000,대구광역시,서구,비산5동,대구광역시 서구 비산5동,35.886305,128.569601
2717060000,대구광역시,서구,비산6동,대구광역시 서구 비산6동,35.87629,128.569075
2717061000,대구광역시,서구,비산7동,대구광역시 서구 비산7동,35.887959,128.553544
2717062000,대구광역시,서구,평리1동,대구광역시 서구 평리1동,35.875607,128.563204
2717063000,대구광역시,서구,평리2동,대구광역시 서구 평리2동,35.871216,128.563641
2717064000,대구광역시,서구,평리3동,대구광역시 서구 평리3동,35.875973,128.561336
2717065000,대구광역시,서구,평리4동,대구광역시 서구 평리4동,35.867383,128.55678
2717066000,대구광역시,서구,평리5동,대구광역시 서구 평리5동,35.87422,128.550601
2717066100,대구광역시,서구,평리6동,대구광역시 서구 평리6동,35.876605,128.550078
2717067500,대구광역시,서구,상중이동,대구광역시 서구 상중이동,35.867002,128.546085
2717069500,대구광역시,서구,원대동,대구광역시 서구 원대동,35.885372,128.573487
2720051500,대구광역시,남구,이천동,대구광역시 남구 이천동,35.853711,128.599425
2720053000,대구광역시,남구,봉덕1동,대구광역시 남구 봉덕1동,35.845294,128.596437
2720054000,대구광역시,남구,봉덕2동,대구광역시 남구 봉덕2동,35.843818,128.60097
2720055000,대구광역시,남구,봉덕3동,대구광역시 남구 봉덕3동,35.84236,128.595927
2720056000,대구광역시,남구,대명1동,대구광역시 남구 대명1동,35.841747,128.573555
2720057100,대구광역시,남구,대명2동,대구광역시 남구 대명2동,35.855299,128.586625
2720058600,대구광역시,남구,대명3동,대구광역시 남구 대명3동,35.852342,128.578983
2720059000,대구광역시,남구,대명4동,대구광역시 남구 대명4동,35.845989,128.569512
2720060000,대구광역시,남구,대명5동,대구광역시 남구 대명5동,35.84319,128.587787
2720061000,대구광역시,남구,대명6동,대구광역시 남구 대명6동,35.835119,128.566038
2720064000,대구광역시,남구,대명9동,대구광역시 남구 대명9동,35.837279,128.579184
2720065000,대구광역시,남구,대명10동,대구광역시 남구 대명10동,35.839946,128.568944
2720066000,대구광역시,남구,대명11동,대구광역시 남구 대명11동,35.836231,128.56058
2723051000,대구광역시,북구,고성동,대구광역시 북구 고성동,35.881913,128.58358
2723052600,대구광역시,북구,칠성동,대구광역시 북구 칠성동,35.879109,128.599926
2723055000,대구광역시,북구,침산1동,대구광역시 북구 침산1동,35.890332,128.581175
2723056000,대구광역시,북구,침산2동,대구광역시 북구 침산2동,35.887284,128.596977
2723057000,대구광역시,북구,침산3동,대구광역시 북구 침산3동,35.89206,128.589432
2723061000,대구광역시,북구,산격1동,대구광역시 북구 산격1동,35.900382,128.596973
2723062000,대구광역시,북구,산격2동,대구광역시 북구 산격2동,35.901701,128.609259
2723063000,대구광역시,북구,산격3동,대구광역시 북구 산격3동,35.893506,128.608502
2723063100,대구광역시,북구,산격4동,대구광역시 북구 산격4동,35.892223,128.604262
2723064500,대구광역시,북구,대현동,대구광역시 북구 대현동,35.882169,128.605823
2723067100,대구광역시,북구,복현1동,대구광역시 북구 복현1동,35.893749,128.61855
2723067200,대구광역시,북구,복현2동,대구광역시 북구 복현2동,35.895457,128.625444
2723068000,대구광역시,북구,검단동,대구광역시 북구 검단동,35.913794,128.629715
2723069500,대구광역시,북구,무태조야동,대구광역시 북구 무태조야동,35.921353,128.597061
2723071500,대구광역시,북구,관문동,대구광역시 북구 관문동,35.901665,128.542088
2723072500,대구광역시,북구,태전1동,대구광역시 북구 태전1동,35.924058,128.543189
2723073500,대구광역시,북구,태전2동,대구광역시 북구 태전2동,35.92148,128.548766
2723074500,대구광역시,북구,구암동,대구광역시 북구 구암동,35.938903,128.565966
2723075000,대구광역시,북구,관음동,대구광역시 북구 관음동,35.944259,128.547249
2723077000,대구광역시,북구,읍내동,대구광역시 북구 읍내동,35.945939,128.550536
2723078000,대구광역시,북구,동천동,대구광역시 북구 동천동,35.937216,128.558073
2723079000,대구광역시,북구,노원동,대구광역시 북구 노원동,35.890132,128.576212
2723080000,대구광역시,북구,국우동,대구광역시 북구 국우동,35.951639,128.579341
2726051000,대구광역시,수성구,범어1동,대구광역시 수성구 범어1동,35.855566,128.622035
2726052000,대구광역시,수성구,범어2동,대구광역시 수성구 범어2동,35.862263,128.631083
2726053000,대구광역시,수성구,범어3동,대구광역시 수성구 범어3동,35.863276,128.624185
2726054000,대구광역시,수성구,범어4동,대구광역시 수성구 범어4동,35.856182,128.638149
2726055000,대구광역시,수성구,만촌1동,대구광역시 수성구 만촌1동,35.866311,128.639966
2726056000,대구광역시,수성구,만촌2동,대구광역시 수성구 만촌2동,35.859857,128.647225
2726056100,대구광역시,수성구,만촌3동,대구광역시 수성구 만촌3동,35.855499,128.650625
2726057000,대구광역시,수성구,수성1가동,대구광역시 수성구 수성1가동,35.855232,128.610311
2726058000,대구광역시,수성구,수성2.3가동,대구광역시 수성구 수성2.3가동,35.854773,128.619032
2726059000,대구광역시,수성구,수성4가동,대구광역시 수성구 수성4가동,35.862665,128.616638
2726060100,대구광역시,수성구,황금1동,대구광역시 수성구 황금1동,35.843957,128.63815
2726060200,대구광역시,수성구,황금2동,대구광역시 수성구 황금2동,35.84723,128.62371
2726061000,대구광역시,수성구,중동,대구광역시 수성구 중동,35.847374,128.615035
2726062000,대구광역시,수성구,상동,대구광역시 수성구 상동,35.832107,128.615404
2726063000,대구광역시,수성구,파동,대구광역시 수성구 파동,35.815448,128.615131
2726064000,대구광역시,수성구,두산동,대구광역시 수성구 두산동,35.835242,128.617541
2726065100,대구광역시,수성구,지산1동,대구광역시 수성구 지산1동,35.824958,128.637046
2726065200,대구광역시,수성구,지산2동,대구광역시 수성구 지산2동,35.823133,128.628013
2726066100,대구광역시,수성구,범물1동,대구광역시 수성구 범물1동,35.817792,128.645963
2726066200,대구광역시,수성구,범물2동,대구광역시 수성구 범물2동,35.817586,128.64344
2726067000,대구광역시,수성구,고산1동,대구광역시 수성구 고산1동,35.837114,128.712388
2726068000,대구광역시,수성구,고산2동,대구광역시 수성구 고산2동,35.843397,128.695157
2726069000,대구광역시,수성구,고산3동,대구광역시 수성구 고산3동,35.844111,128.706567
2729051500,대구광역시,달서구,성당동,대구광역시 달서구 성당동,35.840586,128.553099
2729053500,대구광역시,달서구,두류1.2동,대구광역시 달서구 두류1.2동,35.857762,128.567286
2729055000,대구광역시,달서구,두류3동,대구광역시 달서구 두류3동,35.8537,128.555472
2729055500,대구광역시,달서구,감삼동,대구광역시 달서구 감삼동,35.849186,128.540694
2729056300,대구광역시,달서구,죽전동,대구광역시 달서구 죽전동,35.856587,128.539067
2729056800,대구광역시,달서구,장기동,대구광역시 달서구 장기동,35.843407,128.5299
2729057100,대구광역시,달서구,용산1동,대구광역시 달서구 용산1동,35.856681,128.531169
2729057200,대구광역시,달서구,용산2동,대구광역시 달서구 용산2동,35.858407,128.522963
2729057600,대구광역시,달서구,이곡1동,대구광역시 달서구 이곡1동,35.851657,128.510638
2729057700,대구광역시,달서구,이곡2동,대구광역시 달서구 이곡2동,35.855765,128.500675
2729058500,대구광역시,달서구,신당동,대구광역시 달서구 신당동,35.858965,128.498813
2729059000,대구광역시,달서구,본리동,대구광역시 달서구 본리동,35.840994,128.543159
2729060100,대구광역시,달서구,월성1동,대구광역시 달서구 월성1동,35.819556,128.522881
2729060200,대구광역시,달서구,월성2동,대구광역시 달서구 월성2동,35.830934,128.528289
2729061500,대구광역시,달서구,진천동,대구광역시 달서구 진천동,35.812213,128.522817
2729061700,대구광역시,달서구,유천동,대구광역시 달서구 유천동,35.8155,128.5132
2729062400,대구광역시,달서구,상인1동,대구광역시 달서구 상인1동,35.814259,128.544958
2729062500,대구광역시,달서구,상인2동,대구광역시 달서구 상인2동,35.812527,128.536238
2729062600,대구광역시,달서구,상인3동,대구광역시 달서구 상인3동,35.810044,128.550176
2729062800,대구광역시,달서구,도원동,대구광역시 달서구 도원동,35.807454,128.532177
2729063000,대구광역시,달서구,송현1동,대구광역시 달서구 송현1동,35.829258,128.554704
2729064000,대구광역시,달서구,송현2동,대구광역시 달서구 송현2동,35.832825,128.545563
2729065000,대구광역시,달서구,본동,대구광역시 달서구 본동,35.834457,128.541038
2771025000,대구광역시,달성군,화원읍,대구광역시 달성군 화원읍,35.79781,128.489683
2771025300,대구광역시,달성군,논공읍,대구광역시 달성군 논공읍,35.774305,128.419914
2771025600,대구광역시,달성군,다사읍,대구광역시 달성군 다사읍,35.861843,128.453928
2771025900,대구광역시,달성군,유가읍,대구광역시 달성군 유가읍,35.69393,128.459816
2771026200,대구광역시,달성군,옥포읍,대구광역시 달성군 옥포읍,35.789589,128.463737
2771026500,대구광역시,달성군,현풍읍,대구광역시 달성군 현풍읍,35.697465,128.447609
2771031000,대구광역시,달성군,가창면,대구광역시 달성군 가창면,35.80269,128.622818
2771033000,대구광역시,달성군,하빈면,대구광역시 달성군 하빈면,35.900923,128.445503
2771038000,대구광역시,달성군,구지면,대구광역시 달성군 구지면,35.658777,128.413612
2772025000,대구광역시,군위군,군위읍,대구광역시 군위군 군위읍,36.239943,128.568756
2772031000,대구광역시,군위군,소보면,대구광역시 군위군 소보면,36.25499,128.475219
2772032000,대구광역시,군위군,효령면,대구광역시 군위군 효령면,36.156865,128.5854
2772033000,대구광역시,군위군,부계면,대구광역시 군위군 부계면,36.10089,128.664188
2772034000,대구광역시,군위군,우보면,대구광역시 군위군 우보면,36.194985,128.661788
2772035000,대구광역시,군위군,의흥면,대구광역시 군위군 의흥면,36.175818,128.715162
2772036000,대구광역시,군위군,산성면,대구광역시 군위군 산성면,36.123054,128.694895
2772037000,대구광역시,군위군,삼국유사면,대구광역시 군위군 삼국유사면,36.123278,128.794664
2811052000,인천광역시,중구,연안동,인천광역시 중구 연안동,37.453233,126.604535
2811053000,인천광역시,중구,신포동,인천광역시 중구 신포동,37.471057,126.626655
2811054000,인천광역시,중구,신흥동,인천광역시 중구 신흥동,37.467596,126.634139
2811056000,인천광역시,중구,도원동,인천광역시 중구 도원동,37.468094,126.637901
2811057000,인천광역시,중구,율목동,인천광역시 중구 율목동,37.470135,126.633375
2811058500,인천광역시,중구,동인천동,인천광역시 중구 동인천동,37.476788,126.628976
2811061500,인천광역시,중구,개항동,인천광역시 중구 개항동,37.475161,126.618491
2811062000,인천광역시,중구,영종동,인천광역시 중구 영종동,37.494249,126.531534
2811062200,인천광역시,중구,영종1동,인천광역시 중구 영종1동,37.488864,126.554878
2811062800,인천광역시,중구,운서동,인천광역시 중구 운서동,37.493418,126.488459
2811063000,인천광역시,중구,용유동,인천광역시 중구 용유동,37.443907,126.402439
2814051000,인천광역시,동구,만석동,인천광역시 동구 만석동,37.483248,126.625536
2814052500,인천광역시,동구,화수1.화평동,인천광역시 동구 화수1.화평동,37.481569,126.62991
2814053000,인천광역시,동구,화수2동,인천광역시 동구 화수2동,37.484375,126.630194
2814055500,인천광역시,동구,송현1.2동,인천광역시 동구 송현1.2동,37.476527,126.635589
2814057000,인천광역시,동구,송현3동,인천광역시 동구 송현3동,37.482278,126.642661
2814058000,인천광역시,동구,송림1동,인천광역시 동구 송림1동,37.473733,126.639533
2814059000,인천광역시,동구,송림2동,인천광역시 동구 송림2동,37.475823,126.642719
2814060500,인천광역시,동구,송림3.5동,인천광역시 동구 송림3.5동,37.47473,126.648764
2814061000,인천광역시,동구,송림4동,인천광역시 동구 송림4동,37.477617,126.6519
2814063000,인천광역시,동구,송림6동,인천광역시 동구 송림6동,37.477383,126.647992
2814064000,인천광역시,동구,금창동,인천광역시 동구 금창동,37.472579,126.639842
2817751000,인천광역시,미추홀구,숭의2동,인천광역시 미추홀구 숭의2동,37.463045,126.647274
2817752000,인천광역시,미추홀구,숭의1.3동,인천광역시 미추홀구 숭의1.3동,37.467237,126.647192
2817753000,인천광역시,미추홀구,숭의4동,인천광역시 미추홀구 숭의4동,37.46483,126.659146
2817754000,인천광역시,미추홀구,용현1.4동,인천광역시 미추홀구 용현1.4동,37.454864,126.658591
2817755000,인천광역시,미추홀구,용현2동,인천광역시 미추홀구 용현2동,37.456298,126.64422
2817756000,인천광역시,미추홀구,용현3동,인천광역시 미추홀구 용현3동,37.456633,126.653342
2817757000,인천광역시,미추홀구,용현5동,인천광역시 미추홀구 용현5동,37.452575,126.64018
2817758000,인천광역시,미추홀구,학익1동,인천광역시 미추홀구 학익1동,37.439841,126.664089
2817759000,인천광역시,미추홀구,학익2동,인천광역시 미추홀구 학익2동,37.446579,126.667463
2817760000,인천광역시,미추홀구,도화1동,인천광역시 미추홀구 도화1동,37.460936,126.673893
2817761000,인천광역시,미추홀구,도화2.3동,인천광역시 미추홀구 도화2.3동,37.470982,126.666049
2817762000,인천광역시,미추홀구,주안1동,인천광역시 미추홀구 주안1동,37.463776,126.676525
2817763000,인천광역시,미추홀구,주안2동,인천광역시 미추홀구 주안2동,37.454695,126.672811
2817764000,인천광역시,미추홀구,주안3동,인천광역시 미추홀구 주안3동,37.44832,126.671553
2817765000,인천광역시,미추홀구,주안4동,인천광역시 미추홀구 주안4동,37.455147,126.690333
2817766000,인천광역시,미추홀구,주안5동,인천광역시 미추홀구 주안5동,37.467252,126.68667
2817767000,인천광역시,미추홀구,주안6동,인천광역시 미추홀구 주안6동,37.461197,126.692404
2817768000,인천광역시,미추홀구,주안7동,인천광역시 미추홀구 주안7동,37.448389,126.67769
2817769000,인천광역시,미추홀구,주안8동,인천광역시 미추홀구 주안8동,37.449564,126.689317
2817770000,인천광역시,미추홀구,관교동,인천광역시 미추홀구 관교동,37.444183,126.696813
2817771000,인천광역시,미추홀구,문학동,인천광역시 미추홀구 문학동,37.437697,126.685012
2818563000,인천광역시,연수구,옥련1동,인천광역시 연수구 옥련1동,37.427388,126.655102
2818564000,인천광역시,연수구,옥련2동,인천광역시 연수구 옥련2동,37.426218,126.648258
2818575000,인천광역시,연수구,선학동,인천광역시 연수구 선학동,37.422522,126.70131
2818576100,인천광역시,연수구,연수1동,인천광역시 연수구 연수1동,37.422265,126.681235
2818576200,인천광역시,연수구,연수2동,인천광역시 연수구 연수2동,37.411704,126.681832
2818576300,인천광역시,연수구,연수3동,인천광역시 연수구 연수3동,37.419343,126.69197
2818576600,인천광역시,연수구,청학동,인천광역시 연수구 청학동,37.426614,126.666802
2818578000,인천광역시,연수구,동춘1동,인천광역시 연수구 동춘1동,37.409643,126.670751
2818579000,인천광역시,연수구,동춘2동,인천광역시 연수구 동춘2동,37.402762,126.669366
2818579500,인천광역시,연수구,동춘3동,인천광역시 연수구 동춘3동,37.408488,126.67832
2818582000,인천광역시,연수구,송도1동,인천광역시 연수구 송도1동,37.391047,126.652035
2818583000,인천광역시,연수구,송도2동,인천광역시 연수구 송도2동,37.403288,126.641663
2818584000,인천광역시,연수구,송도3동,인천광역시 연수구 송도3동,37.371388,126.660166
2818585000,인천광역시,연수구,송도4동,인천광역시 연수구 송도4동,37.388239,126.629862
2818586000,인천광역시,연수구,송도5동,인천광역시 연수구 송도5동,37.410725,126.628823
2820051000,인천광역시,남동구,구월1동,인천광역시 남동구 구월1동,37.447651,126.712493
2820052000,인천광역시,남동구,구월2동,인천광역시 남동구 구월2동,37.456112,126.713287
2820052100,인천광역시,남동구,구월3동,인천광역시 남동구 구월3동,37.452711,126.696905
2820052200,인천광역시,남동구,구월4동,인천광역시 남동구 구월4동,37.449619,126.72406
2820053000,인천광역시,남동구,간석1동,인천광역시 남동구 간석1동,37.460391,126.698042
2820054000,인천광역시,남동구,간석2동,인천광역시 남동구 간석2동,37.463964,126.710924
2820055000,인천광역시,남동구,간석3동,인천광역시 남동구 간석3동,37.466198,126.714553
2820055100,인천광역시,남동구,간석4동,인천광역시 남동구 간석4동,37.466656,126.700779
2820056000,인천광역시,남동구,만수1동,인천광역시 남동구 만수1동,37.448775,126.731991
2820057000,인천광역시,남동구,만수2동,인천광역시 남동구 만수2동,37.461397,126.731091
2820058000,인천광역시,남동구,만수3동,인천광역시 남동구 만수3동,37.461984,126.723042
2820058100,인천광역시,남동구,만수4동,인천광역시 남동구 만수4동,37.459466,126.735672
2820058200,인천광역시,남동구,만수5동,인천광역시 남동구 만수5동,37.458029,126.72773
2820058300,인천광역시,남동구,만수6동,인천광역시 남동구 만수6동,37.443759,126.737655
2820065000,인천광역시,남동구,장수서창동,인천광역시 남동구 장수서창동,37.435915,126.747331
2820065500,인천광역시,남동구,서창2동,인천광역시 남동구 서창2동,37.427864,126.750728
2820066000,인천광역시,남동구,남촌도림동,인천광역시 남동구 남촌도림동,37.432321,126.715199
2820069000,인천광역시,남동구,논현1동,인천광역시 남동구 논현1동,37.405755,126.729308
2820070000,인천광역시,남동구,논현2동,인천광역시 남동구 논현2동,37.404248,126.716362
2820071000,인천광역시,남동구,논현고잔동,인천광역시 남동구 논현고잔동,37.397808,126.726264
2823751000,인천광역시,부평구,부평1동,인천광역시 부평구 부평1동,37.494216,126.720071
2823752000,인천광역시,부평구,부평2동,인천광역시 부평구 부평2동,37.4875,126.717221
2823753000,인천광역시,부평구,부평3동,인천광역시 부평구 부평3동,37.486119,126.708196
2823754000,인천광역시,부평구,부평4동,인천광역시 부평구 부평4동,37.500832,126.725004
2823755000,인천광역시,부평구,부평5동,인천광역시 부평구 부평5동,37.498843,126.730865
2823756000,인천광역시,부평구,부평6동,인천광역시 부평구 부평6동,37.485091,126.726599
2823757000,인천광역시,부평구,산곡1동,인천광역시 부평구 산곡1동,37.507058,126.700212
2823758000,인천광역시,부평구,산곡2동,인천광역시 부평구 산곡2동,37.505883,126.708581
2823758100,인천광역시,부평구,산곡3동,인천광역시 부평구 산곡3동,37.490742,126.70953
2823758200,인천광역시,부평구,산곡4동,인천광역시 부평구 산곡4동,37.501735,126.711455
2823759100,인천광역시,부평구,청천1동,인천광역시 부평구 청천1동,37.519812,126.701964
2823759200,인천광역시,부평구,청천2동,인천광역시 부평구 청천2동,37.514823,126.704529
2823764100,인천광역시,부평구,갈산1동,인천광역시 부평구 갈산1동,37.517675,126.727199
2823764200,인천광역시,부평구,갈산2동,인천광역시 부평구 갈산2동,37.510762,126.725699
2823764600,인천광역시,부평구,삼산1동,인천광역시 부평구 삼산1동,37.518394,126.737573
2823764800,인천광역시,부평구,삼산2동,인천광역시 부평구 삼산2동,37.511775,126.736368
2823765000,인천광역시,부평구,부개1동,인천광역시 부평구 부개1동,37.484852,126.737086
2823766000,인천광역시,부평구,부개2동,인천광역시 부평구 부개2동,37.494815,126.737094
2823766100,인천광역시,부평구,부개3동,인천광역시 부평구 부개3동,37.504424,126.734754
2823767000,인천광역시,부평구,일신동,인천광역시 부평구 일신동,37.484534,126.746956
2823768000,인천광역시,부평구,십정1동,인천광역시 부평구 십정1동,37.475851,126.696059
2823769000,인천광역시,부평구,십정2동,인천광역시 부평구 십정2동,37.473824,126.707879
2824560100,인천광역시,계양구,효성1동,인천광역시 계양구 효성1동,37.532453,126.712156
2824560200,인천광역시,계양구,효성2동,인천광역시 계양구 효성2동,37.525069,126.709827
2824561100,인천광역시,계양구,계산1동,인천광역시 계양구 계산1동,37.539611,126.721334
2824561200,인천광역시,계양구,계산2동,인천광역시 계양구 계산2동,37.544226,126.7282
2824561300,인천광역시,계양구,계산3동,인천광역시 계양구 계산3동,37.537753,126.729067
2824561400,인천광역시,계양구,계산4동,인천광역시 계양구 계산4동,37.534623,126.74168
2824562100,인천광역시,계양구,작전1동,인천광역시 계양구 작전1동,37.530797,126.729707
2824562200,인천광역시,계양구,작전2동,인천광역시 계양구 작전2동,37.532957,126.72389
2824564000,인천광역시,계양구,작전서운동,인천광역시 계양구 작전서운동,37.527986,126.736421
2824571000,인천광역시,계양구,계양1동,인천광역시 계양구 계양1동,37.576812,126.734128
2824572000,인천광역시,계양구,계양2동,인천광역시 계양구 계양2동,37.543784,126.7371
2824573000,인천광역시,계양구,계양3동,인천광역시 계양구 계양3동,37.561578,126.754899
2826051500,인천광역시,서구,검암경서동,인천광역시 서구 검암경서동,37.564405,126.673487
2826053000,인천광역시,서구,연희동,인천광역시 서구 연희동,37.548931,126.678211
2826053600,인천광역시,서구,청라1동,인천광역시 서구 청라1동,37.532678,126.653744
2826053700,인천광역시,서구,청라2동,인천광역시 서구 청라2동,37.532663,126.644151
2826053900,인천광역시,서구,청라3동,인천광역시 서구 청라3동,37.533291,126.627034
2826054200,인천광역시,서구,가정1동,인천광역시 서구 가정1동,37.521298,126.676047
2826054300,인천광역시,서구,가정2동,인천광역시 서구 가정2동,37.526335,126.67774
2826054400,인천광역시,서구,가정3동,인천광역시 서구 가정3동,37.515496,126.677883
2826055000,인천광역시,서구,석남1동,인천광역시 서구 석남1동,37.511185,126.674756
2826056000,인천광역시,서구,석남2동,인천광역시 서구 석남2동,37.502659,126.674641
2826056100,인천광역시,서구,석남3동,인천광역시 서구 석남3동,37.508201,126.678245
2826057500,인천광역시,서구,신현원창동,인천광역시 서구 신현원창동,37.5145936,126.6722656
2826058000,인천광역시,서구,가좌1동,인천광역시 서구 가좌1동,37.494372,126.672601
2826059000,인천광역시,서구,가좌2동,인천광역시 서구 가좌2동,37.490857,126.684869
2826060000,인천광역시,서구,가좌3동,인천광역시 서구 가좌3동,37.492487,126.679855
2826061000,인천광역시,서구,가좌4동,인천광역시 서구 가좌4동,37.48742,126.683654
2826068000,인천광역시,서구,검단동,인천광역시 서구 검단동,37.604965,126.661727
2826069000,인천광역시,서구,불로대곡동,인천광역시 서구 불로대곡동,37.617091,126.68897
2826070000,인천광역시,서구,원당동,인천광역시 서구 원당동,37.595158,126.701708
2826071000,인천광역시,서구,당하동,인천광역시 서구 당하동,37.592069,126.674613
2826072000,인천광역시,서구,오류왕길동,인천광역시 서구 오류왕길동,37.597016,126.637631
2826073000,인천광역시,서구,마전동,인천광역시 서구 마전동,37.595396,126.673676
2826074000,인천광역시,서구,아라동,인천광역시 서구 아라동,37.594064,126.715602
2871025000,인천광역시,강화군,강화읍,인천광역시 강화군 강화읍,37.74836,126.483697
2871031000,인천광역시,강화군,선원면,인천광역시 강화군 선원면,37.713293,126.484802
2871032000,인천광역시,강화군,불은면,인천광역시 강화군 불은면,37.686616,126.480287
2871033000,인천광역시,강화군,길상면,인천광역시 강화군 길상면,37.641662,126.489149
2871034000,인천광역시,강화군,화도면,인천광역시 강화군 화도면,37.63169,126.419847
2871035000,인천광역시,강화군,양도면,인천광역시 강화군 양도면,37.66287,126.422084
2871036000,인천광역시,강화군,내가면,인천광역시 강화군 내가면,37.71938,126.389865
2871037000,인천광역시,강화군,하점면,인천광역시 강화군 하점면,37.774897,126.411652
2871038000,인천광역시,강화군,양사면,인천광역시 강화군 양사면,37.798394,126.408525
2871039000,인천광역시,강화군,송해면,인천광역시 강화군 송해면,37.764632,126.463439
2871040000,인천광역시,강화군,교동면,인천광역시 강화군 교동면,37.78445,126.282912
2871041000,인천광역시,강화군,삼산면,인천광역시 강화군 삼산면,37.704852,126.320308
2871042000,인천광역시,강화군,서도면,인천광역시 강화군 서도면,37.650322,126.239201
2872031000,인천광역시,옹진군,북도면,인천광역시 옹진군 북도면,37.532862,126.428721
2872033000,인천광역시,옹진군,백령면,인천광역시 옹진군 백령면,37.974176,124.718691
2872034000,인천광역시,옹진군,대청면,인천광역시 옹진군 대청면,37.825384,124.712293
2872035000,인천광역시,옹진군,덕적면,인천광역시 옹진군 덕적면,37.227812,126.145046
2872036000,인천광역시,옹진군,영흥면,인천광역시 옹진군 영흥면,37.256001,126.483908
2872037000,인천광역시,옹진군,자월면,인천광역시 옹진군 자월면,37.254617,126.307202
2872038000,인천광역시,옹진군,연평면,인천광역시 옹진군 연평면,37.664413,125.702376
2911052500,광주광역시,동구,충장동,광주광역시 동구 충장동,35.149177,126.912816
2911054500,광주광역시,동구,동명동,광주광역시 동구 동명동,35.151182,126.92515
2911056000,광주광역시,동구,계림1동,광주광역시 동구 계림1동,35.158559,126.919657
2911057000,광주광역시,동구,계림2동,광주광역시 동구 계림2동,35.157935,126.923542
2911059000,광주광역시,동구,산수1동,광주광역시 동구 산수1동,35.157315,126.930725
2911060000,광주광역시,동구,산수2동,광주광역시 동구 산수2동,35.154582,126.936138
2911062000,광주광역시,동구,지산1동,광주광역시 동구 지산1동,35.149023,126.93273
2911063000,광주광역시,동구,지산2동,광주광역시 동구 지산2동,35.147982,126.934475
2911065500,광주광역시,동구,서남동,광주광역시 동구 서남동,35.144949,126.923125
2911068500,광주광역시,동구,학동,광주광역시 동구 학동,35.136061,126.922786
2911071000,광주광역시,동구,학운동,광주광역시 동구 학운동,35.13249,126.9335
2911073000,광주광역시,동구,지원1동,광주광역시 동구 지원1동,35.125324,126.935177
2911074000,광주광역시,동구,지원2동,광주광역시 동구 지원2동,35.120441,126.932848
2914057500,광주광역시,서구,양동,광주광역시 서구 양동,35.15481,126.901011
2914059000,광주광역시,서구,양3동,광주광역시 서구 양3동,35.157524,126.893982
2914065000,광주광역시,서구,농성1동,광주광역시 서구 농성1동,35.156671,126.889763
2914066000,광주광역시,서구,농성2동,광주광역시 서구 농성2동,35.150349,126.89025
2914073000,광주광역시,서구,광천동,광주광역시 서구 광천동,35.164324,126.88035
2914074000,광주광역시,서구,유덕동,광주광역시 서구 유덕동,35.165352,126.851965
2914074500,광주광역시,서구,치평동,광주광역시 서구 치평동,35.14994,126.843325
2914075100,광주광역시,서구,상무1동,광주광역시 서구 상무1동,35.153771,126.867434
2914075200,광주광역시,서구,상무2동,광주광역시 서구 상무2동,35.146582,126.866383
2914076000,광주광역시,서구,화정1동,광주광역시 서구 화정1동,35.156374,126.877725
2914077000,광주광역시,서구,화정2동,광주광역시 서구 화정2동,35.146576,126.88218
2914078000,광주광역시,서구,화정3동,광주광역시 서구 화정3동,35.143399,126.876925
2914079000,광주광역시,서구,화정4동,광주광역시 서구 화정4동,35.141798,126.87375
2914080000,광주광역시,서구,서창동,광주광역시 서구 서창동,35.108818,126.824738
2914082100,광주광역시,서구,금호1동,광주광역시 서구 금호1동,35.13519,126.857138
2914082400,광주광역시,서구,금호2동,광주광역시 서구 금호2동,35.12901,126.857163
2914083000,광주광역시,서구,풍암동,광주광역시 서구 풍암동,35.124777,126.878681
2914084000,광주광역시,서구,동천동,광주광역시 서구 동천동,35.170882,126.864723
2915551000,광주광역시,남구,양림동,광주광역시 남구 양림동,35.14049,126.916429
2915552000,광주광역시,남구,방림1동,광주광역시 남구 방림1동,35.134349,126.918263
2915553000,광주광역시,남구,방림2동,광주광역시 남구 방림2동,35.131882,126.922
2915553700,광주광역시,남구,봉선1동,광주광역시 남구 봉선1동,35.129315,126.906683
2915553800,광주광역시,남구,봉선2동,광주광역시 남구 봉선2동,35.123222,126.915887
2915554500,광주광역시,남구,사직동,광주광역시 남구 사직동,35.145788,126.908078
2915560500,광주광역시,남구,월산동,광주광역시 남구 월산동,35.14754,126.902613
2915563000,광주광역시,남구,월산4동,광주광역시 남구 월산4동,35.146718,126.890831
2915564000,광주광역시,남구,월산5동,광주광역시 남구 월산5동,35.140965,126.892955
2915567000,광주광역시,남구,백운1동,광주광역시 남구 백운1동,35.13829,126.9039
2915568000,광주광역시,남구,백운2동,광주광역시 남구 백운2동,35.136082,126.902312
2915569000,광주광역시,남구,주월1동,광주광역시 남구 주월1동,35.131953,126.893357
2915570000,광주광역시,남구,주월2동,광주광역시 남구 주월2동,35.13468,126.894265
2915570500,광주광역시,남구,진월동,광주광역시 남구 진월동,35.1152,126.9026
2915571000,광주광역시,남구,효덕동,광주광역시 남구 효덕동,35.101959,126.894335
2915572000,광주광역시,남구,송암동,광주광역시 남구 송암동,35.11154,126.877113
2915573000,광주광역시,남구,대촌동,광주광역시 남구 대촌동,35.081267,126.833664
2917051000,광주광역시,북구,중흥1동,광주광역시 북구 중흥1동,35.161696,126.913818
2917052000,광주광역시,북구,중흥2동,광주광역시 북구 중흥동,35.169154,126.91406
2917053000,광주광역시,북구,중흥3동,광주광역시 북구 중흥동,35.169154,126.91406
2917055500,광주광역시,북구,중앙동,광주광역시 북구 중앙동,35.157324,126.906538
2917057000,광주광역시,북구,임동,광주광역시 북구 임동,35.16584,126.8942
2917058000,광주광역시,북구,신안동,광주광역시 북구 신안동,35.167458,126.898777
2917059000,광주광역시,북구,용봉동,광주광역시 북구 용봉동,35.180442,126.901201
2917060100,광주광역시,북구,운암1동,광주광역시 북구 운암1동,35.17486,126.87445
2917060200,광주광역시,북구,운암2동,광주광역시 북구 운암2동,35.172635,126.88505
2917060300,광주광역시,북구,운암3동,광주광역시 북구 운암3동,35.182776,126.8743
2917061500,광주광역시,북구,동림동,광주광역시 북구 동림동,35.187042,126.866552
2917062000,광주광역시,북구,우산동,광주광역시 북구 우산동,35.171116,126.919775
2917063500,광주광역시,북구,풍향동,광주광역시 북구 풍향동,35.164437,126.923132
2917065000,광주광역시,북구,문화동,광주광역시 북구 문화동,35.181501,126.93685
2917065600,광주광역시,북구,문흥1동,광주광역시 북구 문흥1동,35.186776,126.9216
2917065700,광주광역시,북구,문흥2동,광주광역시 북구 문흥2동,35.18431,126.921888
2917066100,광주광역시,북구,두암1동,광주광역시 북구 두암1동,35.171035,126.92895
2917066200,광주광역시,북구,두암2동,광주광역시 북구 두암2동,35.174564,126.932472
2917066300,광주광역시,북구,두암3동,광주광역시 북구 두암3동,35.163064,126.934742
2917066600,광주광역시,북구,삼각동,광주광역시 북구 삼각동,35.199301,126.8995
2917066900,광주광역시,북구,일곡동,광주광역시 북구 일곡동,35.20604,126.897268
2917067300,광주광역시,북구,매곡동,광주광역시 북구 매곡동,35.189643,126.892038
2917067600,광주광역시,북구,오치1동,광주광역시 북구 오치1동,35.189126,126.908138
2917067700,광주광역시,북구,오치2동,광주광역시 북구 오치2동,35.190101,126.90045
2917068500,광주광역시,북구,석곡동,광주광역시 북구 석곡동,35.214927,126.949992
2917069500,광주광역시,북구,건국동,광주광역시 북구 건국동,35.222932,126.881635
2917069600,광주광역시,북구,양산동,광주광역시 북구 양산동,35.209221,126.879706
2917069700,광주광역시,북구,신용동,광주광역시 북구 신용동,35.215,126.8639
2920051500,광주광역시,광산구,송정1동,광주광역시 광산구 송정1동,35.14071,126.798691
2920052500,광주광역시,광산구,송정2동,광주광역시 광산구 송정2동,35.136679,126.797251
2920054000,광주광역시,광산구,도산동,광주광역시 광산구 도산동,35.129455,126.791624
2920055000,광주광역시,광산구,신흥동,광주광역시 광산구 신흥동,35.145224,126.800637
2920056500,광주광역시,광산구,어룡동,광주광역시 광산구 어룡동,35.148395,126.779924
2920058000,광주광역시,광산구,우산동,광주광역시 광산구 우산동,35.160272,126.807012
2920060000,광주광역시,광산구,월곡1동,광주광역시 광산구 월곡1동,35.171885,126.809725
2920061000,광주광역시,광산구,월곡2동,광주광역시 광산구 월곡2동,35.174368,126.808008
2920062000,광주광역시,광산구,비아동,광주광역시 광산구 비아동,35.222242,126.824443
2920062400,광주광역시,광산구,첨단1동,광주광역시 광산구 첨단1동,35.219526,126.842362
2920062600,광주광역시,광산구,첨단2동,광주광역시 광산구 첨단2동,35.216281,126.843338
2920063000,광주광역시,광산구,신가동,광주광역시 광산구 신가동,35.179845,126.836002
2920063500,광주광역시,광산구,운남동,광주광역시 광산구 운남동,35.173272,126.82192
2920063700,광주광역시,광산구,수완동,광주광역시 광산구 수완동,35.197027,126.825554
2920064000,광주광역시,광산구,하남동,광주광역시 광산구 하남동,35.179519,126.799844
2920065000,광주광역시,광산구,임곡동,광주광역시 광산구 임곡동,35.219626,126.744788
2920066000,광주광역시,광산구,동곡동,광주광역시 광산구 동곡동,35.098614,126.772023
2920067000,광주광역시,광산구,평동,광주광역시 광산구 평동,35.124728,126.760264
2920068000,광주광역시,광산구,삼도동,광주광역시 광산구 삼도동,35.126399,126.69085
2920069000,광주광역시,광산구,본량동,광주광역시 광산구 본량동,35.18081,126.728775
2920070000,광주광역시,광산구,신창동,광주광역시 광산구 신창동,35.195582,126.840719
3011051500,대전광역시,동구,중앙동,대전광역시 동구 중앙동,36.334596,127.438804
3011053000,대전광역시,동구,효동,대전광역시 동구 효동,36.3170977,127.4417865
3011054500,대전광역시,동구,신인동,대전광역시 동구 신인동,36.323418,127.437931
3011055100,대전광역시,동구,판암1동,대전광역시 동구 판암1동,36.318175,127.460034
3011055200,대전광역시,동구,판암2동,대전광역시 동구 판암2동,36.320506,127.457375
3011056000,대전광역시,동구,용운동,대전광역시 동구 용운동,36.328169,127.461497
3011058500,대전광역시,동구,대동,대전광역시 동구 대동,36.330062,127.442807
3011059000,대전광역시,동구,자양동,대전광역시 동구 자양동,36.335503,127.448587
3011062000,대전광역시,동구,가양1동,대전광역시 동구 가양1동,36.347013,127.44141
3011063000,대전광역시,동구,가양2동,대전광역시 동구 가양2동,36.349056,127.447397
3011064000,대전광역시,동구,용전동,대전광역시 동구 용전동,36.357717,127.432396
3011066500,대전광역시,동구,성남동,대전광역시 동구 성남동,36.344555,127.437445
3011067000,대전광역시,동구,홍도동,대전광역시 동구 홍도동,36.348999,127.425651
3011069500,대전광역시,동구,삼성동,대전광역시 동구 삼성동,36.340582,127.422203
3011072500,대전광역시,동구,대청동,대전광역시 동구 대청동,36.343558,127.492599
3011074000,대전광역시,동구,산내동,대전광역시 동구 산내동,36.276366,127.467177
3014053500,대전광역시,중구,은행선화동,대전광역시 중구 은행선화동,36.33241,127.416585
3014055000,대전광역시,중구,목동,대전광역시 중구 목동,36.335906,127.408438
3014056000,대전광역시,중구,중촌동,대전광역시 중구 중촌동,36.33893,127.412446
3014057500,대전광역시,중구,대흥동,대전광역시 중구 대흥동,36.323402,127.424202
3014060500,대전광역시,중구,문창동,대전광역시 중구 문창동,36.316245,127.437905
3014062000,대전광역시,중구,석교동,대전광역시 중구 석교동,36.305899,127.438505
3014063000,대전광역시,중구,대사동,대전광역시 중구 대사동,36.316518,127.424837
3014064000,대전광역시,중구,부사동,대전광역시 중구 부사동,36.314248,127.433667
3014065500,대전광역시,중구,용두동,대전광역시 중구 용두동,36.325224,127.410355
3014067000,대전광역시,중구,오류동,대전광역시 중구 오류동,36.325514,127.403845
3014068000,대전광역시,중구,태평1동,대전광역시 중구 태평1동,36.327916,127.397367
3014069000,대전광역시,중구,태평2동,대전광역시 중구 태평2동,36.321283,127.392838
3014070000,대전광역시,중구,유천1동,대전광역시 중구 유천1동,36.315014,127.395304
3014071000,대전광역시,중구,유천2동,대전광역시 중구 유천2동,36.315359,127.399167
3014072000,대전광역시,중구,문화1동,대전광역시 중구 문화1동,36.315348,127.40653
3014073000,대전광역시,중구,문화2동,대전광역시 중구 문화2동,36.307742,127.399214
3014074000,대전광역시,중구,산성동,대전광역시 중구 산성동,36.305349,127.386096
3017051000,대전광역시,서구,복수동,대전광역시 서구 복수동,36.300018,127.379003
3017052000,대전광역시,서구,도마1동,대전광역시 서구 도마1동,36.315993,127.381154
3017053000,대전광역시,서구,도마2동,대전광역시 서구 도마2동,36.312812,127.373584
3017053500,대전광역시,서구,정림동,대전광역시 서구 정림동,36.304533,127.366794
3017054000,대전광역시,서구,변동,대전광역시 서구 변동,36.325831,127.386761
3017055000,대전광역시,서구,용문동,대전광역시 서구 용문동,36.338868,127.39157
3017055500,대전광역시,서구,탄방동,대전광역시 서구 탄방동,36.346688,127.39541
3017056000,대전광역시,서구,괴정동,대전광역시 서구 괴정동,36.337168,127.382042
3017057000,대전광역시,서구,가장동,대전광역시 서구 가장동,36.33172,127.385251
3017057500,대전광역시,서구,내동,대전광역시 서구 내동,36.332255,127.377307
3017058100,대전광역시,서구,갈마1동,대전광역시 서구 갈마1동,36.350845,127.367834
3017058200,대전광역시,서구,갈마2동,대전광역시 서구 갈마2동,36.346811,127.374877
3017058600,대전광역시,서구,월평1동,대전광역시 서구 월평1동,36.354685,127.357601
3017058700,대전광역시,서구,월평2동,대전광역시 서구 월평2동,36.363538,127.374048
3017058800,대전광역시,서구,월평3동,대전광역시 서구 월평3동,36.360322,127.366855
3017059000,대전광역시,서구,가수원동,대전광역시 서구 가수원동,36.303513,127.34943
3017059300,대전광역시,서구,도안동,대전광역시 서구 도안동,36.323651,127.346745
3017059600,대전광역시,서구,관저1동,대전광역시 서구 관저1동,36.303951,127.337361
3017059700,대전광역시,서구,관저2동,대전광역시 서구 관저2동,36.299314,127.335202
3017060000,대전광역시,서구,기성동,대전광역시 서구 기성동,36.255897,127.341553
3017063000,대전광역시,서구,둔산1동,대전광역시 서구 둔산1동,36.35252,127.386049
3017064000,대전광역시,서구,둔산2동,대전광역시 서구 둔산2동,36.35385,127.383585
3017065000,대전광역시,서구,만년동,대전광역시 서구 만년동,36.367537,127.375039
3017066000,대전광역시,서구,둔산3동,대전광역시 서구 둔산3동,36.353431,127.400001
3020052000,대전광역시,유성구,진잠동,대전광역시 유성구 진잠동,36.2998,127.316354
3020052600,대전광역시,유성구,학하동,대전광역시 유성구 학하동,36.336232,127.3138
3020052700,대전광역시,유성구,상대동,대전광역시 유성구 상대동,36.342591,127.334288
3020053000,대전광역시,유성구,온천1동,대전광역시 유성구 온천1동,36.353055,127.338981
3020054000,대전광역시,유성구,온천2동,대전광역시 유성구 온천2동,36.365428,127.333389
3020054600,대전광역시,유성구,노은1동,대전광역시 유성구 노은1동,36.368279,127.318398
3020054700,대전광역시,유성구,노은2동,대전광역시 유성구 노은2동,36.389501,127.320719
3020054800,대전광역시,유성구,노은3동,대전광역시 유성구 노은3동,36.386796,127.307906
3020055000,대전광역시,유성구,신성동,대전광역시 유성구 신성동,36.384082,127.350227
3020057000,대전광역시,유성구,전민동,대전광역시 유성구 전민동,36.399982,127.400375
3020058000,대전광역시,유성구,구즉동,대전광역시 유성구 구즉동,36.440616,127.383536
3020060000,대전광역시,유성구,관평동,대전광역시 유성구 관평동,36.423072,127.388746
3020061000,대전광역시,유성구,원신흥동,대전광역시 유성구 원신흥동,36.342166,127.34329
3023051000,대전광역시,대덕구,오정동,대전광역시 대덕구 오정동,36.353897,127.409821
3023052000,대전광역시,대덕구,대화동,대전광역시 대덕구 대화동,36.36649,127.411406
3023052500,대전광역시,대덕구,회덕동,대전광역시 대덕구 회덕동,36.376306,127.421486
3023053300,대전광역시,대덕구,비래동,대전광역시 대덕구 비래동,36.354881,127.449969
3023054300,대전광역시,대덕구,송촌동,대전광역시 대덕구 송촌동,36.365771,127.439876
3023054600,대전광역시,대덕구,중리동,대전광역시 대덕구 중리동,36.360615,127.426412
3023055000,대전광역시,대덕구,신탄진동,대전광역시 대덕구 신탄진동,36.452055,127.429006
3023056000,대전광역시,대덕구,석봉동,대전광역시 대덕구 석봉동,36.450795,127.423209
3023057000,대전광역시,대덕구,덕암동,대전광역시 대덕구 덕암동,36.440292,127.426812
3023058000,대전광역시,대덕구,목상동,대전광역시 대덕구 목상동,36.4485,127.412252
3023060000,대전광역시,대덕구,법1동,대전광역시 대덕구 법1동,36.370775,127.426785
3023061000,대전광역시,대덕구,법2동,대전광역시 대덕구 법2동,36.367232,127.430836
3111051000,울산광역시,중구,학성동,울산광역시 중구 학성동,35.55537,129.334694
3111052000,울산광역시,중구,반구1동,울산광역시 중구 반구1동,35.556422,129.341625
3111053000,울산광역시,중구,반구2동,울산광역시 중구 반구2동,35.563352,129.34086
3111054000,울산광역시,중구,복산1동,울산광역시 중구 복산1동,35.5600406,129.3356079
3111055000,울산광역시,중구,복산2동,울산광역시 중구 복산2동,35.5682498,129.3291321
3111058500,울산광역시,중구,중앙동,울산광역시 중구 중앙동,35.557542,129.32405
3111059000,울산광역시,중구,우정동,울산광역시 중구 우정동,35.555269,129.312518
3111060000,울산광역시,중구,태화동,울산광역시 중구 태화동,35.556542,129.3045
3111061000,울산광역시,중구,다운동,울산광역시 중구 다운동,35.556292,129.275675
3111062000,울산광역시,중구,병영1동,울산광역시 중구 병영1동,35.57005,129.346563
3111063000,울산광역시,중구,병영2동,울산광역시 중구 병영2동,35.5794,129.345988
3111064000,울산광역시,중구,약사동,울산광역시 중구 약사동,35.570492,129.337088
3111065000,울산광역시,중구,성안동,울산광역시 중구 성안동,35.574379,129.30969
3114051000,울산광역시,남구,신정1동,울산광역시 남구 신정1동,35.541408,129.306488
3114052000,울산광역시,남구,신정2동,울산광역시 남구 신정2동,35.534675,129.307738
3114053000,울산광역시,남구,신정3동,울산광역시 남구 신정3동,35.545117,129.316338
3114054000,울산광역시,남구,신정4동,울산광역시 남구 신정4동,35.52941,129.314461
3114055000,울산광역시,남구,신정5동,울산광역시 남구 신정5동,35.544942,129.321413
3114056000,울산광역시,남구,달동,울산광역시 남구 달동,35.5364,129.3165
3114057000,울산광역시,남구,삼산동,울산광역시 남구 삼산동,35.546513,129.338944
3114058500,울산광역시,남구,삼호동,울산광역시 남구 삼호동,35.550033,129.265987
3114059500,울산광역시,남구,무거동,울산광역시 남구 무거동,35.551008,129.260725
3114060000,울산광역시,남구,옥동,울산광역시 남구 옥동,35.535273,129.293858
3114062500,울산광역시,남구,대현동,울산광역시 남구 대현동,35.526567,129.3268
3114063500,울산광역시,남구,수암동,울산광역시 남구 수암동,35.524413,129.318473
3114064000,울산광역시,남구,선암동,울산광역시 남구 선암동,35.514947,129.338326
3114067000,울산광역시,남구,야음장생포동,울산광역시 남구 야음장생포동,35.520081,129.339939
3117051000,울산광역시,동구,방어동,울산광역시 동구 방어동,35.486207,129.423935
3117052000,울산광역시,동구,일산동,울산광역시 동구 일산동,35.499159,129.431282
3117053000,울산광역시,동구,화정동,울산광역시 동구 화정동,35.495956,129.422604
3117054000,울산광역시,동구,대송동,울산광역시 동구 대송동,35.503167,129.418338
3117055000,울산광역시,동구,전하1동,울산광역시 동구 전하1동,35.516795,129.428571
3117056000,울산광역시,동구,전하2동,울산광역시 동구 전하2동,35.508867,129.426588
3117058000,울산광역시,동구,남목1동,울산광역시 동구 남목1동,35.539272,129.420729
3117059000,울산광역시,동구,남목2동,울산광역시 동구 남목2동,35.524558,129.431525
3117060000,울산광역시,동구,남목3동,울산광역시 동구 남목3동,35.546052,129.431376
3120051000,울산광역시,북구,농소1동,울산광역시 북구 농소1동,35.622747,129.35606
3120052000,울산광역시,북구,농소2동,울산광역시 북구 농소2동,35.638324,129.348363
3120053000,울산광역시,북구,농소3동,울산광역시 북구 농소3동,35.628632,129.3396
3120054000,울산광역시,북구,강동동,울산광역시 북구 강동동,35.612831,129.445599
3120056000,울산광역시,북구,효문동,울산광역시 북구 효문동,35.567097,129.376618
3120057000,울산광역시,북구,송정동,울산광역시 북구 송정동,35.603649,129.3644
3120058000,울산광역시,북구,양정동,울산광역시 북구 양정동,35.548642,129.385325
3120059000,울산광역시,북구,염포동,울산광역시 북구 염포동,35.53074,129.394336
3171025000,울산광역시,울주군,온산읍,울산광역시 울주군 온산읍,35.434599,129.314343
3171025300,울산광역시,울주군,언양읍,울산광역시 울주군 언양읍,35.569276,129.125761
3171025600,울산광역시,울주군,온양읍,울산광역시 울주군 온양읍,35.419429,129.280485
3171025900,울산광역시,울주군,범서읍,울산광역시 울주군 범서읍,35.568624,129.23052
3171026200,울산광역시,울주군,청량읍,울산광역시 울주군 청량읍,35.493194,129.306115
3171026500,울산광역시,울주군,삼남읍,울산광역시 울주군 삼남읍,35.541026,129.108601
3171031000,울산광역시,울주군,서생면,울산광역시 울주군 서생면,35.349965,129.325925
3171034000,울산광역시,울주군,웅촌면,울산광역시 울주군 웅촌면,35.461375,129.208314
3171036000,울산광역시,울주군,두동면,울산광역시 울주군 두동면,35.654342,129.201173
3171037000,울산광역시,울주군,두서면,울산광역시 울주군 두서면,35.647914,129.161861
3171038000,울산광역시,울주군,상북면,울산광역시 울주군 상북면,35.590515,129.091325
3171040000,울산광역시,울주군,삼동면,울산광역시 울주군 삼동면,35.523766,129.157584
3611025000,세종특별자치시,,조치원읍,세종특별자치시  조치원읍,36.604566,127.298428
3611031000,세종특별자치시,,연기면,세종특별자치시  연기면,36.542849,127.251526
3611032000,세종특별자치시,,연동면,세종특별자치시  연동면,36.555165,127.327405
3611033000,세종특별자치시,,부강면,세종특별자치시  부강면,36.529726,127.37092
3611034000,세종특별자치시,,금남면,세종특별자치시  금남면,36.463826,127.28035
3611035000,세종특별자치시,,장군면,세종특별자치시  장군면,36.496697,127.205633
3611036000,세종특별자치시,,연서면,세종특별자치시  연서면,36.592587,127.271622
3611037000,세종특별자치시,,전의면,세종특별자치시  전의면,36.681444,127.195956
3611038000,세종특별자치시,,전동면,세종특별자치시  전동면,36.655807,127.264157
3611039000,세종특별자치시,,소정면,세종특별자치시  소정면,36.722325,127.158256
3611051000,세종특별자치시,,한솔동,세종특별자치시  한솔동,36.479087,127.254686
3611051500,세종특별자치시,,새롬동,세종특별자치시  새롬동,36.484856,127.251805
3611051800,세종특별자치시,,나성동,세종특별자치시  나성동,36.489088,127.264327
3611052000,세종특별자치시,,도담동,세종특별자치시  도담동,36.515446,127.261734
3611052300,세종특별자치시,,어진동,세종특별자치시  어진동,36.501957,127.256684
3611052500,세종특별자치시,,해밀동,세종특별자치시  해밀동,36.526839,127.268185
3611053000,세종특별자치시,,아름동,세종특별자치시  아름동,36.51222,127.2469
3611054000,세종특별자치시,,종촌동,세종특별자치시  종촌동,36.50453,127.246912
3611055000,세종특별자치시,,고운동,세종특별자치시  고운동,36.519747,127.236668
3611055500,세종특별자치시,,소담동,세종특별자치시  소담동,36.483956,127.300415
3611055600,세종특별자치시,,반곡동,세종특별자치시  반곡동,36.491997,127.311484
3611056000,세종특별자치시,,보람동,세종특별자치시  보람동,36.478916,127.290643
3611057000,세종특별자치시,,대평동,세종특별자치시  대평동,36.471141,127.279515
3611058000,세종특별자치시,,다정동,세종특별자치시  다정동,36.494607,127.245153
4111156000,경기도,수원시 장안구,파장동,경기도 수원시 장안구 파장동,37.310287,126.997384
4111156600,경기도,수원시 장안구,율천동,경기도 수원시 장안구 율천동,37.297618,126.971492
4111157100,경기도,수원시 장안구,정자1동,경기도 수원시 장안구 정자1동,37.3022,126.991288
4111157200,경기도,수원시 장안구,정자2동,경기도 수원시 장안구 정자2동,37.295075,127.000413
4111157300,경기도,수원시 장안구,정자3동,경기도 수원시 장안구 정자3동,37.295733,126.992537
4111158000,경기도,수원시 장안구,영화동,경기도 수원시 장안구 영화동,37.293189,127.013931
4111159100,경기도,수원시 장안구,송죽동,경기도 수원시 장안구 송죽동,37.300519,127.007011
4111159700,경기도,수원시 장안구,조원1동,경기도 수원시 장안구 조원1동,37.301873,127.016432
4111159800,경기도,수원시 장안구,조원2동,경기도 수원시 장안구 조원2동,37.305633,127.00965
4111160000,경기도,수원시 장안구,연무동,경기도 수원시 장안구 연무동,37.290583,127.021552
4111352000,경기도,수원시 권선구,세류1동,경기도 수원시 권선구 세류1동,37.262265,127.007977
4111353000,경기도,수원시 권선구,세류2동,경기도 수원시 권선구 세류2동,37.253333,127.013039
4111354000,경기도,수원시 권선구,세류3동,경기도 수원시 권선구 세류3동,37.259042,127.011912
4111355000,경기도,수원시 권선구,평동,경기도 수원시 권선구 평동,37.258033,126.994163
4111356000,경기도,수원시 권선구,서둔동,경기도 수원시 권선구 서둔동,37.27258,126.986054
4111365000,경기도,수원시 권선구,구운동,경기도 수원시 권선구 구운동,37.277063,126.97143
4111366200,경기도,수원시 권선구,금곡동,경기도 수원시 권선구 금곡동,37.27274,126.952182
4111366400,경기도,수원시 권선구,호매실동,경기도 수원시 권선구 호매실동,37.266209,126.957087
4111367000,경기도,수원시 권선구,권선1동,경기도 수원시 권선구 권선1동,37.257788,127.024568
4111368000,경기도,수원시 권선구,권선2동,경기도 수원시 권선구 권선2동,37.251325,127.029688
4111369000,경기도,수원시 권선구,곡선동,경기도 수원시 권선구 곡선동,37.243373,127.033304
4111370000,경기도,수원시 권선구,입북동,경기도 수원시 권선구 입북동,37.293233,126.959513
4111565000,경기도,수원시 팔달구,매교동,경기도 수원시 팔달구 매교동,37.271083,127.016603
4111566000,경기도,수원시 팔달구,매산동,경기도 수원시 팔달구 매산동,37.268905,127.005941
4111567000,경기도,수원시 팔달구,고등동,경기도 수원시 팔달구 고등동,37.273466,127.001127
4111568000,경기도,수원시 팔달구,화서1동,경기도 수원시 팔달구 화서1동,37.276571,126.994878
4111569000,경기도,수원시 팔달구,화서2동,경기도 수원시 팔달구 화서2동,37.285121,126.986292
4111570000,경기도,수원시 팔달구,지동,경기도 수원시 팔달구 지동,37.281533,127.024681
4111571000,경기도,수원시 팔달구,우만1동,경기도 수원시 팔달구 우만1동,37.285393,127.029471
4111572000,경기도,수원시 팔달구,우만2동,경기도 수원시 팔달구 우만2동,37.278039,127.039767
4111573000,경기도,수원시 팔달구,인계동,경기도 수원시 팔달구 인계동,37.268052,127.030143
4111574000,경기도,수원시 팔달구,행궁동,경기도 수원시 팔달구 행궁동,37.284088,127.012651
4111751000,경기도,수원시 영통구,매탄1동,경기도 수원시 영통구 매탄1동,37.270515,127.040499
4111752000,경기도,수원시 영통구,매탄2동,경기도 수원시 영통구 매탄2동,37.270173,127.047436
4111753000,경기도,수원시 영통구,매탄3동,경기도 수원시 영통구 매탄3동,37.2564252,127.0431932
4111754000,경기도,수원시 영통구,매탄4동,경기도 수원시 영통구 매탄4동,37.265115,127.048694
4111755000,경기도,수원시 영통구,원천동,경기도 수원시 영통구 원천동,37.273479,127.053217
4111757000,경기도,수원시 영통구,영통1동,경기도 수원시 영통구 영통1동,37.266349,127.08057
4111758000,경기도,수원시 영통구,영통2동,경기도 수원시 영통구 영통2동,37.246987,127.056322
4111758500,경기도,수원시 영통구,영통3동,경기도 수원시 영통구 영통3동,37.249555,127.073897
4111759300,경기도,수원시 영통구,망포1동,경기도 수원시 영통구 망포1동,37.237756,127.060818
4111759600,경기도,수원시 영통구,망포2동,경기도 수원시 영통구 망포2동,37.23887,127.051591
4111760000,경기도,수원시 영통구,광교1동,경기도 수원시 영통구 광교1동,37.290209,127.047369
4111761000,경기도,수원시 영통구,광교2동,경기도 수원시 영통구 광교2동,37.292251,127.070028
4113151000,경기도,성남시 수정구,신흥1동,경기도 성남시 수정구 신흥1동,37.443038,127.141172
4113152000,경기도,성남시 수정구,신흥2동,경기도 성남시 수정구 신흥2동,37.448818,127.145356
4113153000,경기도,성남시 수정구,신흥3동,경기도 성남시 수정구 신흥3동,37.443555,127.148946
4113154000,경기도,성남시 수정구,태평1동,경기도 성남시 수정구 태평1동,37.44074,127.126152
4113155000,경기도,성남시 수정구,태평2동,경기도 성남시 수정구 태평2동,37.44713,127.13863
4113156000,경기도,성남시 수정구,태평3동,경기도 성남시 수정구 태평3동,37.445351,127.133071
4113156100,경기도,성남시 수정구,태평4동,경기도 성남시 수정구 태평4동,37.447701,127.141486
4113157000,경기도,성남시 수정구,수진1동,경기도 성남시 수정구 수진1동,37.438569,127.139015
4113158000,경기도,성남시 수정구,수진2동,경기도 성남시 수정구 수진2동,37.437252,127.128689
4113159000,경기도,성남시 수정구,단대동,경기도 성남시 수정구 단대동,37.449409,127.155387
4113160000,경기도,성남시 수정구,산성동,경기도 성남시 수정구 산성동,37.452305,127.150125
4113161000,경기도,성남시 수정구,양지동,경기도 성남시 수정구 양지동,37.454868,127.161025
4113162000,경기도,성남시 수정구,복정동,경기도 성남시 수정구 복정동,37.465827,127.127081
4113162500,경기도,성남시 수정구,위례동,경기도 성남시 수정구 위례동,37.471377,127.142316
4113163000,경기도,성남시 수정구,신촌동,경기도 성남시 수정구 신촌동,37.458101,127.108725
4113164000,경기도,성남시 수정구,고등동,경기도 성남시 수정구 고등동,37.428299,127.101369
4113165000,경기도,성남시 수정구,시흥동,경기도 성남시 수정구 시흥동,37.421983,127.107954
4113351000,경기도,성남시 중원구,성남동,경기도 성남시 중원구 성남동,37.435067,127.138391
4113352500,경기도,성남시 중원구,중앙동,경기도 성남시 중원구 중앙동,37.442984,127.156156
4113353000,경기도,성남시 중원구,금광1동,경기도 성남시 중원구 금광1동,37.445026,127.162403
4113354000,경기도,성남시 중원구,금광2동,경기도 성남시 중원구 금광2동,37.446271,127.164028
4113355000,경기도,성남시 중원구,은행1동,경기도 성남시 중원구 은행1동,37.452113,127.168906
4113356000,경기도,성남시 중원구,은행2동,경기도 성남시 중원구 은행2동,37.45712,127.166656
4113357000,경기도,성남시 중원구,상대원1동,경기도 성남시 중원구 상대원1동,37.433226,127.164376
4113358000,경기도,성남시 중원구,상대원2동,경기도 성남시 중원구 상대원2동,37.432633,127.15928
4113359000,경기도,성남시 중원구,상대원3동,경기도 성남시 중원구 상대원3동,37.439739,127.165557
4113366000,경기도,성남시 중원구,하대원동,경기도 성남시 중원구 하대원동,37.428299,127.146322
4113367000,경기도,성남시 중원구,도촌동,경기도 성남시 중원구 도촌동,37.41632,127.152812
4113551000,경기도,성남시 분당구,분당동,경기도 성남시 분당구 분당동,37.370237,127.131099
4113552000,경기도,성남시 분당구,수내1동,경기도 성남시 분당구 수내1동,37.375581,127.117874
4113553000,경기도,성남시 분당구,수내2동,경기도 성남시 분당구 수내2동,37.372557,127.120925
4113554000,경기도,성남시 분당구,수내3동,경기도 성남시 분당구 수내3동,37.366893,127.126141
4113554500,경기도,성남시 분당구,정자동,경기도 성남시 분당구 정자동,37.36145,127.111533
4113555000,경기도,성남시 분당구,정자1동,경기도 성남시 분당구 정자1동,37.372798,127.106363
4113556000,경기도,성남시 분당구,정자2동,경기도 성남시 분당구 정자2동,37.366018,127.115277
4113557000,경기도,성남시 분당구,정자3동,경기도 성남시 분당구 정자3동,37.360797,127.119538
4113558000,경기도,성남시 분당구,서현1동,경기도 성남시 분당구 서현1동,37.382926,127.126029
4113559000,경기도,성남시 분당구,서현2동,경기도 성남시 분당구 서현2동,37.376037,127.134599
4113560000,경기도,성남시 분당구,이매1동,경기도 성남시 분당구 이매1동,37.399524,127.127146
4113561000,경기도,성남시 분당구,이매2동,경기도 성남시 분당구 이매2동,37.399624,127.121849
4113562000,경기도,성남시 분당구,야탑1동,경기도 성남시 분당구 야탑1동,37.411983,127.130218
4113563000,경기도,성남시 분당구,야탑2동,경기도 성남시 분당구 야탑2동,37.409417,127.127361
4113564000,경기도,성남시 분당구,야탑3동,경기도 성남시 분당구 야탑3동,37.410834,127.137923
4113565000,경기도,성남시 분당구,판교동,경기도 성남시 분당구 판교동,37.389844,127.098619
4113565500,경기도,성남시 분당구,삼평동,경기도 성남시 분당구 삼평동,37.406078,127.116392
4113565700,경기도,성남시 분당구,백현동,경기도 성남시 분당구 백현동,37.388549,127.11083
4113566200,경기도,성남시 분당구,금곡동,경기도 성남시 분당구 금곡동,37.351647,127.107052
4113566500,경기도,성남시 분당구,구미1동,경기도 성남시 분당구 구미1동,37.349365,127.111763
4113567000,경기도,성남시 분당구,구미동,경기도 성남시 분당구 구미동,37.340254,127.122637
4113568000,경기도,성남시 분당구,운중동,경기도 성남시 분당구 운중동,37.390642,127.077775
4115051000,경기도,의정부시,의정부1동,경기도 의정부시 의정부1동,37.732255,127.049116
4115052000,경기도,의정부시,의정부2동,경기도 의정부시 의정부2동,37.740786,127.042795
4115054500,경기도,의정부시,호원1동,경기도 의정부시 호원1동,37.71203,127.048765
4115055500,경기도,의정부시,호원2동,경기도 의정부시 호원2동,37.726381,127.043054
4115056100,경기도,의정부시,장암동,경기도 의정부시 장암동,37.726407,127.054254
4115056700,경기도,의정부시,신곡1동,경기도 의정부시 신곡1동,37.733095,127.056222
4115056800,경기도,의정부시,신곡2동,경기도 의정부시 신곡2동,37.7437,127.057977
4115057300,경기도,의정부시,송산1동,경기도 의정부시 송산1동,37.731182,127.086685
4115057600,경기도,의정부시,송산2동,경기도 의정부시 송산2동,37.739711,127.089992
4115057800,경기도,의정부시,송산3동,경기도 의정부시 송산3동,37.753302,127.113804
4115058000,경기도,의정부시,자금동,경기도 의정부시 자금동,37.750275,127.058225
4115059500,경기도,의정부시,가능동,경기도 의정부시 가능동,37.750541,127.038488
4115061500,경기도,의정부시,흥선동,경기도 의정부시 흥선동,37.746345,127.030696
4115062000,경기도,의정부시,녹양동,경기도 의정부시 녹양동,37.760047,127.032273
4117151000,경기도,안양시 만안구,안양1동,경기도 안양시 만안구 안양1동,37.398992,126.925908
4117152000,경기도,안양시 만안구,안양2동,경기도 안양시 만안구 안양2동,37.405081,126.917757
4117153000,경기도,안양시 만안구,안양3동,경기도 안양시 만안구 안양3동,37.396281,126.914707
4117154000,경기도,안양시 만안구,안양4동,경기도 안양시 만안구 안양4동,37.396531,126.917857
4117155000,경기도,안양시 만안구,안양5동,경기도 안양시 만안구 안양5동,37.39429,126.920838
4117156000,경기도,안양시 만안구,안양6동,경기도 안양시 만안구 안양6동,37.390057,126.930567
4117157000,경기도,안양시 만안구,안양7동,경기도 안양시 만안구 안양7동,37.39145,126.933715
4117158000,경기도,안양시 만안구,안양8동,경기도 안양시 만안구 안양8동,37.384219,126.932137
4117158100,경기도,안양시 만안구,안양9동,경기도 안양시 만안구 안양9동,37.391465,126.908383
4117159000,경기도,안양시 만안구,석수1동,경기도 안양시 만안구 석수1동,37.419684,126.910535
4117160000,경기도,안양시 만안구,석수2동,경기도 안양시 만안구 석수2동,37.413969,126.909355
4117161000,경기도,안양시 만안구,석수3동,경기도 안양시 만안구 석수동,37.419684,126.910535
4117162100,경기도,안양시 만안구,박달1동,경기도 안양시 만안구 박달1동,37.403697,126.909108
4117163000,경기도,안양시 만안구,박달2동,경기도 안양시 만안구 박달2동,37.40196,126.904708
4117351000,경기도,안양시 동안구,비산1동,경기도 안양시 동안구 비산1동,37.399791,126.933741
4117352000,경기도,안양시 동안구,비산2동,경기도 안양시 동안구 비산2동,37.398025,126.938921
4117353000,경기도,안양시 동안구,비산3동,경기도 안양시 동안구 비산3동,37.404063,126.945576
4117354000,경기도,안양시 동안구,부흥동,경기도 안양시 동안구 부흥동,37.393995,126.945941
4117354600,경기도,안양시 동안구,달안동,경기도 안양시 동안구 달안동,37.396082,126.950179
4117355000,경기도,안양시 동안구,관양1동,경기도 안양시 동안구 관양동,37.406214,126.961402
4117356000,경기도,안양시 동안구,관양2동,경기도 안양시 동안구 관양동,37.406214,126.961402
4117356600,경기도,안양시 동안구,부림동,경기도 안양시 동안구 부림동,37.398725,126.959421
4117357000,경기도,안양시 동안구,평촌동,경기도 안양시 동안구 평촌동,37.394679,126.977077
4117357600,경기도,안양시 동안구,평안동,경기도 안양시 동안구 평안동,37.390407,126.964238
4117357800,경기도,안양시 동안구,귀인동,경기도 안양시 동안구 귀인동,37.385512,126.969464
4117358000,경기도,안양시 동안구,호계1동,경기도 안양시 동안구 호계1동,37.370918,126.958359
4117359000,경기도,안양시 동안구,호계2동,경기도 안양시 동안구 호계2동,37.380678,126.953351
4117360000,경기도,안양시 동안구,호계3동,경기도 안양시 동안구 호계3동,37.367567,126.958614
4117361000,경기도,안양시 동안구,범계동,경기도 안양시 동안구 범계동,37.389774,126.952466
4117362000,경기도,안양시 동안구,신촌동,경기도 안양시 동안구 신촌동,37.381817,126.956246
4117363000,경기도,안양시 동안구,갈산동,경기도 안양시 동안구 갈산동,37.376144,126.966095
4119060300,경기도,부천시,심곡동,경기도 부천시 심곡동,37.490976,126.780647
4119060600,경기도,부천시,부천동,경기도 부천시 역곡1동,37.48924,126.816765
4119061000,경기도,부천시,중동,경기도 부천시 중동,37.487812,126.768185
4119074200,경기도,부천시,신중동,경기도 부천시 신중동,37.503737,126.778026
4119074400,경기도,부천시,상동,경기도 부천시 상동,37.494944,126.760825
4119074600,경기도,부천시,대산동,경기도 부천시 심곡본동,37.480739,126.780043
4119075000,경기도,부천시,소사본동,경기도 부천시 소사본동,37.476233,126.792146
4119079500,경기도,부천시,범안동,경기도 부천시 범박동,37.470581,126.809723
4119080000,경기도,부천시,성곡동,경기도 부천시 성곡동,37.516718,126.803493
4119083000,경기도,부천시,오정동,경기도 부천시 오정동,37.528903,126.790836
4121051000,경기도,광명시,광명1동,경기도 광명시 광명1동,37.488631,126.862675
4121052000,경기도,광명시,광명2동,경기도 광명시 광명2동,37.483412,126.855903
4121054000,경기도,광명시,광명3동,경기도 광명시 광명3동,37.480228,126.856948
4121055000,경기도,광명시,광명4동,경기도 광명시 광명4동,37.478059,126.858352
4121056000,경기도,광명시,광명5동,경기도 광명시 광명5동,37.478776,126.847478
4121057000,경기도,광명시,광명6동,경기도 광명시 광명6동,37.471087,126.848657
4121058000,경기도,광명시,광명7동,경기도 광명시 광명7동,37.469391,126.853175
4121059000,경기도,광명시,철산1동,경기도 광명시 철산1동,37.490816,126.867896
4121060000,경기도,광명시,철산2동,경기도 광명시 철산2동,37.482084,126.865196
4121061000,경기도,광명시,철산3동,경기도 광명시 철산3동,37.477134,126.872489
4121062000,경기도,광명시,철산4동,경기도 광명시 철산4동,37.4740874,126.8644726
4121063100,경기도,광명시,하안1동,경기도 광명시 하안1동,37.465127,126.869145
4121063200,경기도,광명시,하안2동,경기도 광명시 하안2동,37.464716,126.874734
4121063300,경기도,광명시,하안3동,경기도 광명시 하안3동,37.458705,126.881626
4121063400,경기도,광명시,하안4동,경기도 광명시 하안4동,37.465722,126.877734
4121064000,경기도,광명시,소하1동,경기도 광명시 소하1동,37.452269,126.884897
4121065000,경기도,광명시,소하2동,경기도 광명시 소하2동,37.432091,126.880147
4121065500,경기도,광명시,일직동,경기도 광명시 일직동,37.4206,126.8816
4121066000,경기도,광명시,학온동,경기도 광명시 학온동,37.415467,126.851347
4122025000,경기도,평택시,팽성읍,경기도 평택시 팽성읍,36.965173,127.062405
4122025300,경기도,평택시,안중읍,경기도 평택시 안중읍,36.986065,126.931323
4122025600,경기도,평택시,포승읍,경기도 평택시 포승읍,36.982943,126.88515
4122025900,경기도,평택시,청북읍,경기도 평택시 청북읍,37.039879,126.934335
4122031000,경기도,평택시,진위면,경기도 평택시 진위면,37.100062,127.090581
4122032000,경기도,평택시,서탄면,경기도 평택시 서탄면,37.108232,127.035325
4122033000,경기도,평택시,고덕면,경기도 평택시 고덕면,37.026728,127.014522
4122034000,경기도,평택시,오성면,경기도 평택시 오성면,37.007146,126.980326
4122037000,경기도,평택시,현덕면,경기도 평택시 현덕면,36.9674,126.921499
4122051000,경기도,평택시,중앙동,경기도 평택시 중앙동,37.055401,127.056014
4122052000,경기도,평택시,서정동,경기도 평택시 서정동,37.067783,127.054675
4122053500,경기도,평택시,송탄동,경기도 평택시 송탄동,37.044429,127.095037
4122055000,경기도,평택시,지산동,경기도 평택시 지산동,37.077422,127.057596
4122056000,경기도,평택시,송북동,경기도 평택시 송북동,37.081629,127.06024
4122057000,경기도,평택시,신장1동,경기도 평택시 신장1동,37.08403,127.052407
4122058000,경기도,평택시,신장2동,경기도 평택시 신장2동,37.076452,127.052435
4122059000,경기도,평택시,신평동,경기도 평택시 신평동,36.990092,127.092727
4122060000,경기도,평택시,원평동,경기도 평택시 원평동,36.98933,127.080534
4122061000,경기도,평택시,통복동,경기도 평택시 통복동,37.000815,127.087202
4122062000,경기도,평택시,비전1동,경기도 평택시 비전1동,37.010942,127.112171
4122063000,경기도,평택시,비전2동,경기도 평택시 비전2동,36.990356,127.111754
4122063500,경기도,평택시,용이동,경기도 평택시 용이동,36.997572,127.133731
4122064000,경기도,평택시,세교동,경기도 평택시 세교동,37.008606,127.081127
4122065000,경기도,평택시,동삭동,경기도 평택시 동삭동,37.0152,127.0965
4122066000,경기도,평택시,고덕동,경기도 평택시 고덕동,37.040587,127.050617
4125051000,경기도,동두천시,생연1동,경기도 동두천시 생연1동,37.907395,127.065919
4125052000,경기도,동두천시,생연2동,경기도 동두천시 생연2동,37.901204,127.049927
4125053500,경기도,동두천시,중앙동,경기도 동두천시 중앙동,37.907788,127.053256
4125055000,경기도,동두천시,보산동,경기도 동두천시 보산동,37.917648,127.061321
4125056500,경기도,동두천시,불현동,경기도 동두천시 불현동,37.898439,127.062429
4125056600,경기도,동두천시,송내동,경기도 동두천시 송내동,37.878545,127.067465
4125058000,경기도,동두천시,소요동,경기도 동두천시 소요동,37.92946,127.057287
4125060000,경기도,동두천시,상패동,경기도 동두천시 상패동,37.905373,127.044357
4127151000,경기도,안산시 상록구,일동,경기도 안산시 상록구 일동,37.31036,126.866129
4127151500,경기도,안산시 상록구,이동,경기도 안산시 상록구 이동,37.305375,126.860863
4127152500,경기도,안산시 상록구,사동,경기도 안산시 상록구 사동,37.297091,126.850991
4127153200,경기도,안산시 상록구,사이동,경기도 안산시 상록구 사이동,37.289825,126.851854
4127153700,경기도,안산시 상록구,해양동,경기도 안산시 상록구 해양동,37.294844,126.820068
4127154000,경기도,안산시 상록구,본오1동,경기도 안산시 상록구 본오1동,37.285106,126.86427
4127155000,경기도,안산시 상록구,본오2동,경기도 안산시 상록구 본오2동,37.293541,126.869366
4127156000,경기도,안산시 상록구,본오3동,경기도 안산시 상록구 본오3동,37.301474,126.86379
4127157000,경기도,안산시 상록구,부곡동,경기도 안산시 상록구 부곡동,37.331945,126.861089
4127158000,경기도,안산시 상록구,월피동,경기도 안산시 상록구 월피동,37.336215,126.845563
4127159000,경기도,안산시 상록구,성포동,경기도 안산시 상록구 성포동,37.320766,126.849381
4127160000,경기도,안산시 상록구,반월동,경기도 안산시 상록구 반월동,37.306075,126.902263
4127161000,경기도,안산시 상록구,안산동,경기도 안산시 상록구 안산동,37.361902,126.873386
4127351000,경기도,안산시 단원구,와동,경기도 안산시 단원구 와동,37.34165,126.825676
4127352500,경기도,안산시 단원구,고잔동,경기도 안산시 단원구 고잔동,37.327111,126.819153
4127353200,경기도,안산시 단원구,중앙동,경기도 안산시 단원구 중앙동,37.323795,126.837592
4127353500,경기도,안산시 단원구,호수동,경기도 안산시 단원구 호수동,37.310299,126.824313
4127354500,경기도,안산시 단원구,원곡동,경기도 안산시 단원구 원곡동,37.333255,126.790838
4127355500,경기도,안산시 단원구,백운동,경기도 안산시 단원구 백운동,37.327971,126.797025
4127356500,경기도,안산시 단원구,신길동,경기도 안산시 단원구 신길동,37.334841,126.783137
4127357000,경기도,안산시 단원구,초지동,경기도 안산시 단원구 초지동,37.309967,126.816808
4127358000,경기도,안산시 단원구,선부1동,경기도 안산시 단원구 선부1동,37.334217,126.804413
4127359000,경기도,안산시 단원구,선부2동,경기도 안산시 단원구 선부2동,37.338568,126.802707
4127360000,경기도,안산시 단원구,선부3동,경기도 안산시 단원구 선부3동,37.345084,126.812569
4127361000,경기도,안산시 단원구,대부동,경기도 안산시 단원구 대부동,37.250758,126.603312
4128151000,경기도,고양시 덕양구,주교동,경기도 고양시 덕양구 주교동,37.659432,126.82963
4128152000,경기도,고양시 덕양구,원신동,경기도 고양시 덕양구 원신동,37.677375,126.875849
4128153000,경기도,고양시 덕양구,흥도동,경기도 고양시 덕양구 흥도동,37.644933,126.854398
4128154000,경기도,고양시 덕양구,성사1동,경기도 고양시 덕양구 성사1동,37.657146,126.836408
4128155000,경기도,고양시 덕양구,성사2동,경기도 고양시 덕양구 성사2동,37.652954,126.83297
4128156000,경기도,고양시 덕양구,효자동,경기도 고양시 덕양구 효자동,37.670638,126.972128
4128157600,경기도,고양시 덕양구,삼송1동,경기도 고양시 덕양구 삼송1동,37.652583,126.893704
4128157700,경기도,고양시 덕양구,삼송2동,경기도 고양시 덕양구 삼송2동,37.650822,126.870207
4128158000,경기도,고양시 덕양구,창릉동,경기도 고양시 덕양구 창릉동,37.645511,126.886544
4128159000,경기도,고양시 덕양구,고양동,경기도 고양시 덕양구 고양동,37.703366,126.903703
4128160000,경기도,고양시 덕양구,관산동,경기도 고양시 덕양구 관산동,37.688032,126.862562
4128161000,경기도,고양시 덕양구,능곡동,경기도 고양시 덕양구 능곡동,37.622799,126.81806
4128162100,경기도,고양시 덕양구,화정1동,경기도 고양시 덕양구 화정1동,37.644688,126.833511
4128162200,경기도,고양시 덕양구,화정2동,경기도 고양시 덕양구 화정2동,37.630571,126.835763
4128163000,경기도,고양시 덕양구,행주동,경기도 고양시 덕양구 행주동,37.618467,126.825383
4128164000,경기도,고양시 덕양구,행신1동,경기도 고양시 덕양구 행신1동,37.622317,126.835916
4128165000,경기도,고양시 덕양구,행신2동,경기도 고양시 덕양구 행신2동,37.615206,126.833062
4128165500,경기도,고양시 덕양구,행신3동,경기도 고양시 덕양구 행신3동,37.62639,126.838624
4128165600,경기도,고양시 덕양구,행신4동,경기도 고양시 덕양구 행신4동,37.618614,126.845021
4128166000,경기도,고양시 덕양구,화전동,경기도 고양시 덕양구 화전동,37.600042,126.872672
4128167000,경기도,고양시 덕양구,대덕동,경기도 고양시 덕양구 대덕동,37.585542,126.875168
4128551000,경기도,고양시 일산동구,식사동,경기도 고양시 일산동구 식사동,37.677304,126.813738
4128552500,경기도,고양시 일산동구,중산1동,경기도 고양시 일산동구 중산1동,37.69182,126.780452
4128552600,경기도,고양시 일산동구,중산2동,경기도 고양시 일산동구 중산2동,37.674531,126.78602
4128553000,경기도,고양시 일산동구,정발산동,경기도 고양시 일산동구 정발산동,37.672484,126.779852
4128554000,경기도,고양시 일산동구,풍산동,경기도 고양시 일산동구 풍산동,37.664108,126.799945
4128555100,경기도,고양시 일산동구,백석1동,경기도 고양시 일산동구 백석1동,37.649679,126.792511
4128555200,경기도,고양시 일산동구,백석2동,경기도 고양시 일산동구 백석2동,37.643953,126.785611
4128556000,경기도,고양시 일산동구,마두1동,경기도 고양시 일산동구 마두1동,37.655819,126.789816
4128557000,경기도,고양시 일산동구,마두2동,경기도 고양시 일산동구 마두2동,37.653574,126.7845
4128558000,경기도,고양시 일산동구,장항1동,경기도 고양시 일산동구 장항1동,37.641607,126.770533
4128559000,경기도,고양시 일산동구,장항2동,경기도 고양시 일산동구 장항2동,37.649886,126.778333
4128560000,경기도,고양시 일산동구,고봉동,경기도 고양시 일산동구 고봉동,37.70188,126.82724
4128751000,경기도,고양시 일산서구,일산1동,경기도 고양시 일산서구 일산1동,37.687225,126.768639
4128752000,경기도,고양시 일산서구,일산2동,경기도 고양시 일산서구 일산2동,37.684623,126.777205
4128753000,경기도,고양시 일산서구,일산3동,경기도 고양시 일산서구 일산3동,37.676992,126.770233
4128754500,경기도,고양시 일산서구,탄현1동,경기도 고양시 일산서구 탄현1동,37.694331,126.768429
4128754600,경기도,고양시 일산서구,탄현2동,경기도 고양시 일산서구 탄현2동,37.702166,126.767614
4128755000,경기도,고양시 일산서구,주엽1동,경기도 고양시 일산서구 주엽1동,37.670141,126.763263
4128756000,경기도,고양시 일산서구,주엽2동,경기도 고양시 일산서구 주엽2동,37.67412,126.760492
4128757000,경기도,고양시 일산서구,대화동,경기도 고양시 일산서구 대화동,37.682977,126.755177
4128758000,경기도,고양시 일산서구,송포동,경기도 고양시 일산서구 송포동,37.671452,126.735511
4128760000,경기도,고양시 일산서구,덕이동,경기도 고양시 일산서구 덕이동,37.69091,126.754305
4128761000,경기도,고양시 일산서구,가좌동,경기도 고양시 일산서구 가좌동,37.684459,126.72087
4129051000,경기도,과천시,중앙동,경기도 과천시 중앙동,37.43319,126.993374
4129051500,경기도,과천시,원문동,경기도 과천시 원문동,37.422176,126.991325
4129052000,경기도,과천시,갈현동,경기도 과천시 갈현동,37.414783,126.979334
4129053000,경기도,과천시,별양동,경기도 과천시 별양동,37.424247,126.993799
4129054000,경기도,과천시,부림동,경기도 과천시 부림동,37.433539,126.998601
4129055000,경기도,과천시,과천동,경기도 과천시 과천동,37.448432,126.995426
4129056000,경기도,과천시,문원동,경기도 과천시 문원동,37.426406,127.00184
4131051000,경기도,구리시,갈매동,경기도 구리시 갈매동,37.63143,127.117798
4131052000,경기도,구리시,동구동,경기도 구리시 동구동,37.613469,127.140541
4131053000,경기도,구리시,인창동,경기도 구리시 인창동,37.604492,127.134958
4131054100,경기도,구리시,교문1동,경기도 구리시 교문1동,37.597875,127.130347
4131054200,경기도,구리시,교문2동,경기도 구리시 교문2동,37.587099,127.134137
4131057000,경기도,구리시,수택1동,경기도 구리시 수택1동,37.600362,127.141961
4131058000,경기도,구리시,수택2동,경기도 구리시 수택2동,37.593193,127.140042
4131059000,경기도,구리시,수택3동,경기도 구리시 수택3동,37.591544,127.138929
4136025000,경기도,남양주시,와부읍,경기도 남양주시 와부읍,37.585373,127.2167
4136025300,경기도,남양주시,진접읍,경기도 남양주시 진접읍,37.726286,127.189862
4136025600,경기도,남양주시,화도읍,경기도 남양주시 화도읍,37.657918,127.300616
4136025900,경기도,남양주시,진건읍,경기도 남양주시 진건읍,37.654544,127.177747
4136026200,경기도,남양주시,오남읍,경기도 남양주시 오남읍,37.698876,127.204712
4136026500,경기도,남양주시,퇴계원읍,경기도 남양주시 퇴계원읍,37.648977,127.144663
4136031000,경기도,남양주시,별내면,경기도 남양주시 별내면,37.70256,127.124725
4136034000,경기도,남양주시,수동면,경기도 남양주시 수동면,37.703517,127.325915
4136036000,경기도,남양주시,조안면,경기도 남양주시 조안면,37.5359,127.30345
4136051000,경기도,남양주시,호평동,경기도 남양주시 호평동,37.654904,127.24865
4136052000,경기도,남양주시,평내동,경기도 남양주시 평내동,37.648312,127.236075
4136053000,경기도,남양주시,금곡동,경기도 남양주시 금곡동,37.63317,127.202187
4136054000,경기도,남양주시,양정동,경기도 남양주시 양정동,37.616358,127.187175
4136054500,경기도,남양주시,다산1동,경기도 남양주시 다산1동,37.613982,127.155453
4136056500,경기도,남양주시,다산2동,경기도 남양주시 다산2동,37.60768,127.169458
4136057000,경기도,남양주시,별내동,경기도 남양주시 별내동,37.646179,127.122004
4137051000,경기도,오산시,중앙동,경기도 오산시 중앙동,37.152314,127.073136
4137053000,경기도,오산시,남촌동,경기도 오산시 남촌동,37.15458,127.06345
4137054000,경기도,오산시,신장동,경기도 오산시 신장1동,37.176721,127.05472
4137055000,경기도,오산시,세마동,경기도 오산시 세마동,37.188312,127.040763
4137056000,경기도,오산시,초평동,경기도 오산시 초평동,37.140196,127.044104
4137057000,경기도,오산시,대원동,경기도 오산시 대원1동,37.138722,127.07176
4139051000,경기도,시흥시,대야동,경기도 시흥시 대야동,37.448611,126.78486
4139052000,경기도,시흥시,신천동,경기도 시흥시 신천동,37.435399,126.781779
4139053100,경기도,시흥시,신현동,경기도 시흥시 신현동,37.406201,126.784579
4139054000,경기도,시흥시,은행동,경기도 시흥시 은행동,37.43645,126.79793
4139055000,경기도,시흥시,매화동,경기도 시흥시 매화동,37.418057,126.815351
4139057000,경기도,시흥시,목감동,경기도 시흥시 목감동,37.391765,126.870275
4139058100,경기도,시흥시,군자동,경기도 시흥시 군자동,37.360913,126.794739
4139058200,경기도,시흥시,월곶동,경기도 시흥시 월곶동,37.388999,126.742512
4139058900,경기도,시흥시,정왕본동,경기도 시흥시 정왕본동,37.349301,126.746051
4139059100,경기도,시흥시,정왕1동,경기도 시흥시 정왕1동,37.340288,126.743981
4139059200,경기도,시흥시,정왕2동,경기도 시흥시 정왕2동,37.351079,126.729007
4139059300,경기도,시흥시,정왕3동,경기도 시흥시 정왕3동,37.357542,126.726448
4139059400,경기도,시흥시,정왕4동,경기도 시흥시 정왕4동,37.365577,126.73224
4139059600,경기도,시흥시,배곧1동,경기도 시흥시 배곧1동,37.371705,126.735733
4139059700,경기도,시흥시,배곧2동,경기도 시흥시 배곧2동,37.360977,126.712345
4139062100,경기도,시흥시,과림동,경기도 시흥시 과림동,37.436875,126.832852
4139063000,경기도,시흥시,연성동,경기도 시흥시 연성동,37.381522,126.803369
4139063100,경기도,시흥시,장곡동,경기도 시흥시 장곡동,37.377449,126.788079
4139064000,경기도,시흥시,능곡동,경기도 시흥시 능곡동,37.366288,126.815741
4141051000,경기도,군포시,군포1동,경기도 군포시 군포1동,37.353624,126.94555
4141052000,경기도,군포시,군포2동,경기도 군포시 군포2동,37.346378,126.943131
4141054000,경기도,군포시,산본1동,경기도 군포시 산본1동,37.373382,126.938588
4141055000,경기도,군포시,산본2동,경기도 군포시 산본2동,37.37,126.932724
4141056000,경기도,군포시,금정동,경기도 군포시 금정동,37.365462,126.939362
4141057000,경기도,군포시,재궁동,경기도 군포시 재궁동,37.358399,126.939017
4141058000,경기도,군포시,오금동,경기도 군포시 오금동,37.351052,126.929495
4141059000,경기도,군포시,수리동,경기도 군포시 수리동,37.356065,126.921013
4141060000,경기도,군포시,궁내동,경기도 군포시 궁내동,37.359674,126.921838
4141061000,경기도,군포시,대야동,경기도 군포시 대야동,37.33026,126.9153
4141062000,경기도,군포시,광정동,경기도 군포시 광정동,37.362132,126.927888
4141063000,경기도,군포시,송부동,경기도 군포시 송부동,37.316171,126.923824
4143051000,경기도,의왕시,고천동,경기도 의왕시 고천동,37.345066,126.966087
4143052000,경기도,의왕시,부곡동,경기도 의왕시 부곡동,37.318586,126.956773
4143053000,경기도,의왕시,오전동,경기도 의왕시 오전동,37.353539,126.971603
4143054000,경기도,의왕시,내손1동,경기도 의왕시 내손1동,37.378395,126.975689
4143055000,경기도,의왕시,내손2동,경기도 의왕시 내손2동,37.387711,126.981701
4143056000,경기도,의왕시,청계동,경기도 의왕시 청계동,37.400132,127.018188
4145051000,경기도,하남시,천현동,경기도 하남시 천현동,37.5264,127.216725
4145052000,경기도,하남시,신장1동,경기도 하남시 신장1동,37.538776,127.2095
4145053000,경기도,하남시,신장2동,경기도 하남시 신장2동,37.541709,127.214012
4145054000,경기도,하남시,덕풍1동,경기도 하남시 덕풍1동,37.535144,127.198445
4145055000,경기도,하남시,덕풍2동,경기도 하남시 덕풍2동,37.542301,127.198126
4145056000,경기도,하남시,덕풍3동,경기도 하남시 덕풍3동,37.552561,127.204746
4145058000,경기도,하남시,감북동,경기도 하남시 감북동,37.516208,127.161688
4145058200,경기도,하남시,감일동,경기도 하남시 감일동,37.5102,127.146688
4145058500,경기도,하남시,위례동,경기도 하남시 위례동,37.477164,127.152502
4145059000,경기도,하남시,춘궁동,경기도 하남시 춘궁동,37.522175,127.19415
4145060000,경기도,하남시,초이동,경기도 하남시 초이동,37.536625,127.170855
4145061000,경기도,하남시,미사1동,경기도 하남시 미사1동,37.560361,127.188804
4145062000,경기도,하남시,미사2동,경기도 하남시 미사2동,37.567146,127.186013
4145063000,경기도,하남시,미사3동,경기도 하남시 미사3동,37.549033,127.185108
4146125000,경기도,용인시 처인구,포곡읍,경기도 용인시 처인구 포곡읍,37.277923,127.230858
4146125300,경기도,용인시 처인구,모현읍,경기도 용인시 처인구 모현읍,37.329452,127.242369
4146125600,경기도,용인시 처인구,이동읍,경기도 용인시 처인구 이동읍,37.141084,127.196162
4146125900,경기도,용인시 처인구,남사읍,경기도 용인시 처인구 남사읍,37.115721,127.150639
4146134000,경기도,용인시 처인구,원삼면,경기도 용인시 처인구 원삼면,37.166692,127.313244
4146135000,경기도,용인시 처인구,백암면,경기도 용인시 처인구 백암면,37.163452,127.375344
4146136000,경기도,용인시 처인구,양지면,경기도 용인시 처인구 양지면,37.235507,127.279802
4146151000,경기도,용인시 처인구,중앙동,경기도 용인시 처인구 중앙동,37.23496,127.207692
4146152500,경기도,용인시 처인구,역북동,경기도 용인시 처인구 역북동,37.2401,127.1904
4146152600,경기도,용인시 처인구,삼가동,경기도 용인시 처인구 삼가동,37.240251,127.165525
4146153000,경기도,용인시 처인구,유림동,경기도 용인시 처인구 유림동,37.252445,127.21172
4146154000,경기도,용인시 처인구,동부동,경기도 용인시 처인구 동부동,37.232762,127.219133
4146351000,경기도,용인시 기흥구,신갈동,경기도 용인시 기흥구 신갈동,37.272653,127.107056
4146351600,경기도,용인시 기흥구,영덕1동,경기도 용인시 기흥구 영덕1동,37.27785,127.074527
4146351700,경기도,용인시 기흥구,영덕2동,경기도 용인시 기흥구 영덕2동,37.2667,127.091852
4146352000,경기도,용인시 기흥구,구갈동,경기도 용인시 기흥구 구갈동,37.272484,127.12762
4146353000,경기도,용인시 기흥구,상갈동,경기도 용인시 기흥구 상갈동,37.266573,127.107612
4146353500,경기도,용인시 기흥구,보라동,경기도 용인시 기흥구 보라동,37.253951,127.108287
4146354000,경기도,용인시 기흥구,기흥동,경기도 용인시 기흥구 기흥동,37.231509,127.115519
4146355000,경기도,용인시 기흥구,서농동,경기도 용인시 기흥구 서농동,37.237978,127.068383
4146356000,경기도,용인시 기흥구,구성동,경기도 용인시 기흥구 구성동,37.296806,127.119009
4146357000,경기도,용인시 기흥구,마북동,경기도 용인시 기흥구 마북동,37.301657,127.117501
4146357200,경기도,용인시 기흥구,동백1동,경기도 용인시 기흥구 동백1동,37.287575,127.163777
4146357500,경기도,용인시 기흥구,동백2동,경기도 용인시 기흥구 동백2동,37.272461,127.151715
4146357700,경기도,용인시 기흥구,동백3동,경기도 용인시 기흥구 동백3동,37.281072,127.14424
4146358600,경기도,용인시 기흥구,상하동,경기도 용인시 기흥구 상하동,37.270584,127.138385
4146359000,경기도,용인시 기흥구,보정동,경기도 용인시 기흥구 보정동,37.320165,127.112962
4146551000,경기도,용인시 수지구,풍덕천1동,경기도 용인시 수지구 풍덕천1동,37.32795,127.094929
4146552000,경기도,용인시 수지구,풍덕천2동,경기도 용인시 수지구 풍덕천2동,37.319454,127.088698
4146553000,경기도,용인시 수지구,신봉동,경기도 용인시 수지구 신봉동,37.320666,127.083554
4146554000,경기도,용인시 수지구,죽전1동,경기도 용인시 수지구 죽전1동,37.331005,127.113871
4146555000,경기도,용인시 수지구,죽전2동,경기도 용인시 수지구 죽전2동,37.325938,127.106698
4146555500,경기도,용인시 수지구,죽전3동,경기도 용인시 수지구 죽전3동,37.32808,127.114179
4146556000,경기도,용인시 수지구,동천동,경기도 용인시 수지구 동천동,37.341894,127.099308
4146557000,경기도,용인시 수지구,상현1동,경기도 용인시 수지구 상현1동,37.304611,127.081122
4146558000,경기도,용인시 수지구,상현2동,경기도 용인시 수지구 상현2동,37.310289,127.086644
4146558500,경기도,용인시 수지구,상현3동,경기도 용인시 수지구 상현3동,37.299628,127.072636
4146559000,경기도,용인시 수지구,성복동,경기도 용인시 수지구 성복동,37.316416,127.069013
4148025000,경기도,파주시,문산읍,경기도 파주시 문산읍,37.856875,126.791016
4148025300,경기도,파주시,파주읍,경기도 파주시 파주읍,37.83069,126.819764
4148025600,경기도,파주시,법원읍,경기도 파주시 법원읍,37.849163,126.882384
4148026200,경기도,파주시,조리읍,경기도 파주시 조리읍,37.744784,126.805243
4148031000,경기도,파주시,월롱면,경기도 파주시 월롱면,37.799276,126.789209
4148032000,경기도,파주시,탄현면,경기도 파주시 탄현면,37.802541,126.716114
4148035000,경기도,파주시,광탄면,경기도 파주시 광탄면,37.776234,126.85124
4148036000,경기도,파주시,파평면,경기도 파주시 파평면,37.921762,126.837741
4148037000,경기도,파주시,적성면,경기도 파주시 적성면,37.954159,126.917529
4148039000,경기도,파주시,장단면,경기도 파주시 장단면,37.873578,126.712137
4148051000,경기도,파주시,금촌1동,경기도 파주시 금촌1동,37.766323,126.776006
4148052000,경기도,파주시,금촌2동,경기도 파주시 금촌2동,37.751622,126.777284
4148053000,경기도,파주시,금촌3동,경기도 파주시 금촌3동,37.771496,126.778368
4148054000,경기도,파주시,교하동,경기도 파주시 교하동,37.753037,126.746866
4148055000,경기도,파주시,운정1동,경기도 파주시 운정1동,37.724207,126.751316
4148056000,경기도,파주시,운정2동,경기도 파주시 운정2동,37.726668,126.739949
4148057000,경기도,파주시,운정3동,경기도 파주시 운정3동,37.717116,126.743626
4148058000,경기도,파주시,운정4동,경기도 파주시 운정4동,37.718973,126.768772
4148059000,경기도,파주시,운정5동,경기도 파주시 운정5동,37.720227,126.7105621
4148060000,경기도,파주시,운정6동,경기도 파주시 운정6동,37.712863,126.720305
4150025000,경기도,이천시,장호원읍,경기도 이천시 장호원읍,37.114886,127.616797
4150025300,경기도,이천시,부발읍,경기도 이천시 부발읍,37.283686,127.486916
4150031000,경기도,이천시,신둔면,경기도 이천시 신둔면,37.306285,127.40405
4150032000,경기도,이천시,백사면,경기도 이천시 백사면,37.339057,127.490713
4150033000,경기도,이천시,호법면,경기도 이천시 호법면,37.222946,127.424414
4150034000,경기도,이천시,마장면,경기도 이천시 마장면,37.248981,127.357935
4150035000,경기도,이천시,대월면,경기도 이천시 대월면,37.229859,127.492367
4150036000,경기도,이천시,모가면,경기도 이천시 모가면,37.171695,127.480134
4150037000,경기도,이천시,설성면,경기도 이천시 설성면,37.132449,127.522038
4150038000,경기도,이천시,율면,경기도 이천시 율면,37.094311,127.546417
4150051000,경기도,이천시,창전동,경기도 이천시 창전동,37.282904,127.44106
4150051500,경기도,이천시,증포동,경기도 이천시 증포동,37.290378,127.452483
4150052000,경기도,이천시,중리동,경기도 이천시 중리동,37.277997,127.441627
4150053000,경기도,이천시,관고동,경기도 이천시 관고동,37.282395,127.437881
4155025000,경기도,안성시,공도읍,경기도 안성시 공도읍,37.00118,127.172627
4155031000,경기도,안성시,보개면,경기도 안성시 보개면,37.023016,127.290854
4155032000,경기도,안성시,금광면,경기도 안성시 금광면,36.997232,127.317513
4155033000,경기도,안성시,서운면,경기도 안성시 서운면,36.943081,127.259296
4155034000,경기도,안성시,미양면,경기도 안성시 미양면,36.97535,127.21528
4155035000,경기도,안성시,대덕면,경기도 안성시 대덕면,37.012485,127.237832
4155036000,경기도,안성시,양성면,경기도 안성시 양성면,37.059858,127.194487
4155038000,경기도,안성시,원곡면,경기도 안성시 원곡면,37.039413,127.129465
4155039000,경기도,안성시,일죽면,경기도 안성시 일죽면,37.090619,127.476949
4155040000,경기도,안성시,죽산면,경기도 안성시 죽산면,37.078583,127.422459
